[{"unique_id":"601","name":"Northern Mesoamerican Pacific mangroves","TYPE":"TEOW","coordinates":[-112.349,29.324]},{"unique_id":"533","name":"Sinaloan dry forests","TYPE":"TEOW","coordinates":[-105.443,21.649]},{"unique_id":"567","name":"Everglades","TYPE":"TEOW","coordinates":[-80.132,25.847]},{"unique_id":"539","name":"Bahamian pine mosaic","TYPE":"TEOW","coordinates":[-78.176,27.007]},{"unique_id":"599","name":"Bahamian-Antillean mangroves","TYPE":"TEOW","coordinates":[-77.663,26.872]},{"unique_id":"489","name":"South Florida rocklands","TYPE":"TEOW","coordinates":[-81.253,25.882]},{"unique_id":"594","name":"San Lucan xeric scrub","TYPE":"TEOW","coordinates":[-110.387,24.528]},{"unique_id":"501","name":"Veracruz moist forests","TYPE":"TEOW","coordinates":[-97.778,23.975]},{"unique_id":"532","name":"Sierra de la Laguna dry forests","TYPE":"TEOW","coordinates":[-109.926,23.103]},{"unique_id":"540","name":"Belizian pine forests","TYPE":"TEOW","coordinates":[-88.332,17.405]},{"unique_id":"479","name":"Petén-Veracruz moist forests","TYPE":"TEOW","coordinates":[-88.35,17.35]},{"unique_id":"600","name":"Mesoamerican Gulf-Caribbean mangroves","TYPE":"TEOW","coordinates":[-87.835,17.378]},{"unique_id":"459","name":"Leeward Islands moist forests","TYPE":"TEOW","coordinates":[-62.769,17.3]},{"unique_id":"438","name":"Chiapas montane forests","TYPE":"TEOW","coordinates":[-93.228,17.106]},{"unique_id":"546","name":"Sierra Madre de Oaxaca pine-oak forests","TYPE":"TEOW","coordinates":[-95.524,17.301]},{"unique_id":"547","name":"Sierra Madre del Sur pine-oak forests","TYPE":"TEOW","coordinates":[-100.449,17.266]},{"unique_id":"504","name":"Windward Islands moist forests","TYPE":"TEOW","coordinates":[-60.94,14.728]},{"unique_id":"437","name":"Central American montane forests","TYPE":"TEOW","coordinates":[-87.859,14.74]},{"unique_id":"586","name":"Caribbean shrublands","TYPE":"TEOW","coordinates":[-61.218,14.846]},{"unique_id":"525","name":"Lesser Antillean dry forests","TYPE":"TEOW","coordinates":[-61.043,14.587]},{"unique_id":"604","name":"Southern Mesoamerican Pacific mangroves","TYPE":"TEOW","coordinates":[-92.458,14.748]},{"unique_id":"541","name":"Central American pine-oak forests","TYPE":"TEOW","coordinates":[-86.374,13.345]},{"unique_id":"598","name":"Amazon-Orinoco-Southern Caribbean mangroves","TYPE":"TEOW","coordinates":[-71.614,10.992]},{"unique_id":"583","name":"Araya and Paria xeric scrub","TYPE":"TEOW","coordinates":[-63.133,11.382]},{"unique_id":"589","name":"Guajira-Barranquilla xeric scrub","TYPE":"TEOW","coordinates":[-74.009,11.344]},{"unique_id":"496","name":"Trinidad and Tobago moist forests","TYPE":"TEOW","coordinates":[-60.557,11.236]},{"unique_id":"534","name":"Sinú Valley dry forests","TYPE":"TEOW","coordinates":[-73.971,11.228]},{"unique_id":"444","name":"Costa Rican seasonal moist forests","TYPE":"TEOW","coordinates":[-85.463,11.175]},{"unique_id":"484","name":"Santa Marta montane forests","TYPE":"TEOW","coordinates":[-73.69,10.627]},{"unique_id":"559","name":"Llanos","TYPE":"TEOW","coordinates":[-62.919,6.364]},{"unique_id":"578","name":"Northern Andean páramo","TYPE":"TEOW","coordinates":[-76.117,6.451]},{"unique_id":"449","name":"Guianan Highlands moist forests","TYPE":"TEOW","coordinates":[-62.988,6.432]},{"unique_id":"494","name":"Pantepui","TYPE":"TEOW","coordinates":[-66.275,6.437]},{"unique_id":"557","name":"Guianan savanna","TYPE":"TEOW","coordinates":[-60.888,6.389]},{"unique_id":"602","name":"South American Pacific mangroves","TYPE":"TEOW","coordinates":[-77.277,3.892]},{"unique_id":"483","name":"Rio Negro campinarana","TYPE":"TEOW","coordinates":[-67.725,3.899]},{"unique_id":"508","name":"Apure-Villavicencio dry forests","TYPE":"TEOW","coordinates":[-73.888,3.807]},{"unique_id":"548","name":"Trans-Mexican Volcanic Belt pine-oak forests","TYPE":"TEOW","coordinates":[-100.814,21.724]},{"unique_id":"587","name":"Cuban cactus scrub","TYPE":"TEOW","coordinates":[-79.93,21.737]},{"unique_id":"445","name":"Cuban moist forests","TYPE":"TEOW","coordinates":[-77.398,21.77]},{"unique_id":"565","name":"Cuban wetlands","TYPE":"TEOW","coordinates":[-82.651,21.767]},{"unique_id":"518","name":"Cuban dry forests","TYPE":"TEOW","coordinates":[-77.278,21.692]},{"unique_id":"471","name":"Oaxacan montane forests","TYPE":"TEOW","coordinates":[-97.347,19.958]},{"unique_id":"452","name":"Hispaniolan moist forests","TYPE":"TEOW","coordinates":[-69.295,19.189]},{"unique_id":"520","name":"Hispaniolan dry forests","TYPE":"TEOW","coordinates":[-70.866,18.315]},{"unique_id":"506","name":"Yucatán moist forests","TYPE":"TEOW","coordinates":[-87.675,19.373]},{"unique_id":"521","name":"Islas Revillagigedo dry forests","TYPE":"TEOW","coordinates":[-110.827,19.295]},{"unique_id":"544","name":"Miskito pine forests","TYPE":"TEOW","coordinates":[-84.547,15.104]},{"unique_id":"514","name":"Central American dry forests","TYPE":"TEOW","coordinates":[-86.485,15.395]},{"unique_id":"545","name":"Sierra de la Laguna pine-oak forests","TYPE":"TEOW","coordinates":[-109.926,23.103]},{"unique_id":"511","name":"Balsas dry forests","TYPE":"TEOW","coordinates":[-102.871,19.728]},{"unique_id":"473","name":"Pantanos de Centla","TYPE":"TEOW","coordinates":[-93.157,18.438]},{"unique_id":"569","name":"Orinoco wetlands","TYPE":"TEOW","coordinates":[-62.68,10.1]},{"unique_id":"492","name":"Talamancan montane forests","TYPE":"TEOW","coordinates":[-83.778,9.925]},{"unique_id":"442","name":"Cordillera La Costa montane forests","TYPE":"TEOW","coordinates":[-63.412,10.009]},{"unique_id":"590","name":"La Costa xeric shrublands","TYPE":"TEOW","coordinates":[-64.759,10.286]},{"unique_id":"480","name":"Puerto Rican moist forests","TYPE":"TEOW","coordinates":[-66.23,18.47]},{"unique_id":"566","name":"Enriquillo wetlands","TYPE":"TEOW","coordinates":[-71.933,18.47]},{"unique_id":"523","name":"Jamaican dry forests","TYPE":"TEOW","coordinates":[-77.93,18.479]},{"unique_id":"456","name":"Jamaican moist forests","TYPE":"TEOW","coordinates":[-77.926,18.467]},{"unique_id":"552","name":"Valdivian temperate forests","TYPE":"TEOW","coordinates":[-73.522,-42.603]},{"unique_id":"454","name":"Isthmian-Atlantic moist forests","TYPE":"TEOW","coordinates":[-82.054,9.177]},{"unique_id":"577","name":"Cordillera de Merida páramo","TYPE":"TEOW","coordinates":[-70.787,8.913]},{"unique_id":"507","name":"Guianan piedmont and lowland moist forests","TYPE":"TEOW","coordinates":[-62.742,6.116]},{"unique_id":"498","name":"Uatuma-Trombetas moist forests","TYPE":"TEOW","coordinates":[-51.229,-0.079]},{"unique_id":"453","name":"Iquitos varzeá","TYPE":"TEOW","coordinates":[-74.373,-3.966]},{"unique_id":"448","name":"Fernando de Noronha-Atol das Rocas moist forests","TYPE":"TEOW","coordinates":[-32.471,-3.877]},{"unique_id":"458","name":"Juruá-Purus moist forests","TYPE":"TEOW","coordinates":[-69.618,-4.085]},{"unique_id":"499","name":"Ucayali moist forests","TYPE":"TEOW","coordinates":[-75.394,-8.69]},{"unique_id":"550","name":"Magellanic subpolar forests","TYPE":"TEOW","coordinates":[-73.864,-51.909]},{"unique_id":"564","name":"Patagonian steppe","TYPE":"TEOW","coordinates":[-61.241,-51.878]},{"unique_id":"705","name":"Scandinavian and Russian taiga","TYPE":"TEOW","coordinates":[30.614,61.516]},{"unique_id":"759","name":"Cherskii-Kolyma mountain tundra","TYPE":"TEOW","coordinates":[145.651,60.378]},{"unique_id":"405","name":"Low Arctic tundra","TYPE":"TEOW","coordinates":[-93.871,61.487]},{"unique_id":"334","name":"British Columbia mainland coastal forests","TYPE":"TEOW","coordinates":[-128.881,53.62]},{"unique_id":"632","name":"Atlantic mixed forests","TYPE":"TEOW","coordinates":[7.062,53.679]},{"unique_id":"364","name":"Eastern Canadian Shield taiga","TYPE":"TEOW","coordinates":[-56.527,53.649]},{"unique_id":"719","name":"Kazakh upland","TYPE":"TEOW","coordinates":[67.422,53.65]},{"unique_id":"639","name":"Celtic broadleaf forests","TYPE":"TEOW","coordinates":[-10.192,53.611]},{"unique_id":"393","name":"Aleutian Islands tundra","TYPE":"TEOW","coordinates":[-168.767,53.061]},{"unique_id":"353","name":"Queen Charlotte Islands","TYPE":"TEOW","coordinates":[-133.016,53.542]},{"unique_id":"363","name":"Eastern Canadian forests","TYPE":"TEOW","coordinates":[-60.857,50.192]},{"unique_id":"522","name":"Jalisco dry forests","TYPE":"TEOW","coordinates":[-106.684,21.741]},{"unique_id":"436","name":"Central American Atlantic moist forests","TYPE":"TEOW","coordinates":[-83.549,12.603]},{"unique_id":"435","name":"Cayos Miskitos-San Andrés and Providencia moist forests","TYPE":"TEOW","coordinates":[-81.725,12.489]},{"unique_id":"434","name":"Cauca Valley montane forests","TYPE":"TEOW","coordinates":[-76.155,2.916]},{"unique_id":"455","name":"Isthmian-Pacific moist forests","TYPE":"TEOW","coordinates":[-81.717,7.426]},{"unique_id":"450","name":"Guianan moist forests","TYPE":"TEOW","coordinates":[-58.472,7.031]},{"unique_id":"531","name":"Puerto Rican dry forests","TYPE":"TEOW","coordinates":[-65.309,18.148]},{"unique_id":"596","name":"Tehuacán Valley matorral","TYPE":"TEOW","coordinates":[-97.834,17.971]},{"unique_id":"439","name":"Chimalapas montane forests","TYPE":"TEOW","coordinates":[-94.399,16.733]},{"unique_id":"432","name":"Caqueta moist forests","TYPE":"TEOW","coordinates":[-69.895,-0.933]},{"unique_id":"481","name":"Purus varzeá","TYPE":"TEOW","coordinates":[-70.771,1.134]},{"unique_id":"440","name":"Chocó-Darién moist forests","TYPE":"TEOW","coordinates":[-79.014,1.199]},{"unique_id":"463","name":"Marajó varzeá","TYPE":"TEOW","coordinates":[-49.632,0.158]},{"unique_id":"588","name":"Galápagos Islands scrubland mosaic","TYPE":"TEOW","coordinates":[-91.014,-0.984]},{"unique_id":"519","name":"Ecuadorian dry forests","TYPE":"TEOW","coordinates":[-80.428,-0.565]},{"unique_id":"542","name":"Cuban pine forests","TYPE":"TEOW","coordinates":[-75.535,19.954]},{"unique_id":"472","name":"Orinoco Delta swamp forests","TYPE":"TEOW","coordinates":[-60.884,9.242]},{"unique_id":"433","name":"Catatumbo moist forests","TYPE":"TEOW","coordinates":[-72.792,9.845]},{"unique_id":"500","name":"Venezuelan Andes montane forests","TYPE":"TEOW","coordinates":[-71.948,7.953]},{"unique_id":"584","name":"Atacama desert","TYPE":"TEOW","coordinates":[-70.331,-18.468]},{"unique_id":"603","name":"Southern Atlantic mangroves","TYPE":"TEOW","coordinates":[-39.736,-18.596]},{"unique_id":"554","name":"Campos Rupestres montane savanna","TYPE":"TEOW","coordinates":[-43.524,-19.031]},{"unique_id":"570","name":"Pantanal","TYPE":"TEOW","coordinates":[-58.168,-18.996]},{"unique_id":"490","name":"Southern Andean Yungas","TYPE":"TEOW","coordinates":[-63.835,-19.28]},{"unique_id":"429","name":"Bahia interior forests","TYPE":"TEOW","coordinates":[-46.129,-19.421]},{"unique_id":"512","name":"Bolivian montane dry forests","TYPE":"TEOW","coordinates":[-64.675,-19.519]},{"unique_id":"555","name":"Cerrado","TYPE":"TEOW","coordinates":[-50.447,-20.936]},{"unique_id":"475","name":"Alto Paraná Atlantic forests","TYPE":"TEOW","coordinates":[-46.195,-22.071]},{"unique_id":"404","name":"Kalaallit Nunaat low arctic tundra","TYPE":"TEOW","coordinates":[-51.384,68.634]},{"unique_id":"400","name":"Davis Highlands tundra","TYPE":"TEOW","coordinates":[-67.337,68.618]},{"unique_id":"406","name":"Middle Arctic tundra","TYPE":"TEOW","coordinates":[-100.736,68.594]},{"unique_id":"696","name":"Scandinavian coastal conifer forests","TYPE":"TEOW","coordinates":[14.002,67.099]},{"unique_id":"767","name":"Taimyr-Central Siberian tundra","TYPE":"TEOW","coordinates":[127.624,72.378]},{"unique_id":"401","name":"High Arctic tundra","TYPE":"TEOW","coordinates":[-78.915,72.276]},{"unique_id":"699","name":"Iceland boreal birch forests and alpine tundra","TYPE":"TEOW","coordinates":[-13.688,64.898]},{"unique_id":"760","name":"Chukchi Peninsula tundra","TYPE":"TEOW","coordinates":[-172.814,64.728]},{"unique_id":"402","name":"Interior Yukon-Alaska alpine tundra","TYPE":"TEOW","coordinates":[-153.912,63.976]},{"unique_id":"352","name":"Puget lowland forests","TYPE":"TEOW","coordinates":[-123.065,48.699]},{"unique_id":"360","name":"Central Canadian Shield forests","TYPE":"TEOW","coordinates":[-86.977,48.621]},{"unique_id":"735","name":"Altai alpine meadow and tundra","TYPE":"TEOW","coordinates":[90.536,48.402]},{"unique_id":"688","name":"Khangai Mountains conifer forests","TYPE":"TEOW","coordinates":[97.949,48.254]},{"unique_id":"369","name":"Newfoundland Highland forests","TYPE":"TEOW","coordinates":[-58.841,47.594]},{"unique_id":"741","name":"Khangai Mountains alpine meadow","TYPE":"TEOW","coordinates":[97.949,48.254]},{"unique_id":"264","name":"Tenasserim-South Thailand semi-evergreen rain forests","TYPE":"TEOW","coordinates":[98.184,11.45]},{"unique_id":"233","name":"Myanmar coastal rain forests","TYPE":"TEOW","coordinates":[97.99,11.433]},{"unique_id":"180","name":"Ethiopian xeric grasslands and shrublands","TYPE":"TEOW","coordinates":[43.455,11.439]},{"unique_id":"244","name":"Palawan rain forests","TYPE":"TEOW","coordinates":[120.835,11.42]},{"unique_id":"165","name":"Ethiopian montane moorlands","TYPE":"TEOW","coordinates":[39.641,10.099]},{"unique_id":"230","name":"Mindanao-Eastern Visayas rain forests","TYPE":"TEOW","coordinates":[124.291,10.585]},{"unique_id":"99","name":"Ethiopian montane forests","TYPE":"TEOW","coordinates":[38.138,4.428]},{"unique_id":"98","name":"Eastern Guinean forests","TYPE":"TEOW","coordinates":[1.558,10.473]},{"unique_id":"215","name":"Greater Negros-Panay rain forests","TYPE":"TEOW","coordinates":[122.69,10.44]},{"unique_id":"608","name":"Eastern Micronesia tropical moist forests","TYPE":"TEOW","coordinates":[169.953,10.461]},{"unique_id":"576","name":"Cordillera Central páramo","TYPE":"TEOW","coordinates":[-79.089,-4.3]},{"unique_id":"474","name":"Guianan freshwater swamp forests","TYPE":"TEOW","coordinates":[-57.008,5.966]},{"unique_id":"766","name":"Scandinavian Montane Birch forest and grasslands","TYPE":"TEOW","coordinates":[22.718,70.538]},{"unique_id":"396","name":"Baffin coastal tundra","TYPE":"TEOW","coordinates":[-70.263,70.792]},{"unique_id":"403","name":"Kalaallit Nunaat high arctic tundra","TYPE":"TEOW","coordinates":[-21.671,70.856]},{"unique_id":"394","name":"Arctic coastal tundra","TYPE":"TEOW","coordinates":[-154.609,70.864]},{"unique_id":"770","name":"Yamal-Gydan tundra","TYPE":"TEOW","coordinates":[66.558,70.574]},{"unique_id":"543","name":"Hispaniolan pine forests","TYPE":"TEOW","coordinates":[-71.374,18.117]},{"unique_id":"461","name":"Magdalena Valley montane forests","TYPE":"TEOW","coordinates":[-75.891,2.827]},{"unique_id":"447","name":"Eastern Panamanian montane forests","TYPE":"TEOW","coordinates":[-78.428,8.742]},{"unique_id":"502","name":"Veracruz montane forests","TYPE":"TEOW","coordinates":[-99.045,21.369]},{"unique_id":"538","name":"Yucatán dry forests","TYPE":"TEOW","coordinates":[-87.488,21.205]},{"unique_id":"529","name":"Panamanian dry forests","TYPE":"TEOW","coordinates":[-78.23,8.261]},{"unique_id":"441","name":"Cocos Island moist forests","TYPE":"TEOW","coordinates":[-87.075,5.501]},{"unique_id":"510","name":"Bajío dry forests","TYPE":"TEOW","coordinates":[-102.017,19.945]},{"unique_id":"446","name":"Eastern Cordillera real montane forests","TYPE":"TEOW","coordinates":[-79.236,-5.85]},{"unique_id":"491","name":"Southwest Amazon moist forests","TYPE":"TEOW","coordinates":[-69.031,-13.822]},{"unique_id":"553","name":"Beni savanna","TYPE":"TEOW","coordinates":[-67.906,-13.827]},{"unique_id":"595","name":"Sechura desert","TYPE":"TEOW","coordinates":[-76.466,-13.849]},{"unique_id":"427","name":"Atlantic Coast restingas","TYPE":"TEOW","coordinates":[-38.95,-13.942]},{"unique_id":"575","name":"Central Andean wet puna","TYPE":"TEOW","coordinates":[-71.719,-14.894]},{"unique_id":"757","name":"Arctic desert","TYPE":"TEOW","coordinates":[-9.078,70.873]},{"unique_id":"397","name":"Beringia lowland tundra","TYPE":"TEOW","coordinates":[-165.488,66.4]},{"unique_id":"537","name":"Veracruz dry forests","TYPE":"TEOW","coordinates":[-96.131,19.225]},{"unique_id":"486","name":"Sierra de los Tuxtlas","TYPE":"TEOW","coordinates":[-94.603,18.118]},{"unique_id":"535","name":"Southern Pacific dry forests","TYPE":"TEOW","coordinates":[-95.527,15.958]},{"unique_id":"451","name":"Gurupa varzeá","TYPE":"TEOW","coordinates":[-53.641,-2.444]},{"unique_id":"469","name":"Northeastern Brazil restingas","TYPE":"TEOW","coordinates":[-43.383,-2.35]},{"unique_id":"466","name":"Monte Alegre varzeá","TYPE":"TEOW","coordinates":[-59.536,-4.28]},{"unique_id":"431","name":"Caatinga Enclaves moist forests","TYPE":"TEOW","coordinates":[-39.027,-4.405]},{"unique_id":"398","name":"Beringia upland tundra","TYPE":"TEOW","coordinates":[-163.132,64.649]},{"unique_id":"659","name":"North Atlantic moist mixed forests","TYPE":"TEOW","coordinates":[-1.001,60.327]},{"unique_id":"666","name":"Sarmatic mixed forests","TYPE":"TEOW","coordinates":[22.461,60.348]},{"unique_id":"348","name":"Northern Pacific coastal forests","TYPE":"TEOW","coordinates":[-145.038,60.358]},{"unique_id":"409","name":"Torngat Mountain tundra","TYPE":"TEOW","coordinates":[-65.455,59.66]},{"unique_id":"516","name":"Chiapas Depression dry forests","TYPE":"TEOW","coordinates":[-92.687,16.122]},{"unique_id":"487","name":"Sierra Madre de Chiapas moist forests","TYPE":"TEOW","coordinates":[-92.135,15.164]},{"unique_id":"592","name":"Motagua Valley thornscrub","TYPE":"TEOW","coordinates":[-89.377,15.086]},{"unique_id":"593","name":"Paraguana xeric scrub","TYPE":"TEOW","coordinates":[-70.511,11.25]},{"unique_id":"524","name":"Lara-Falcón dry forests","TYPE":"TEOW","coordinates":[-68.816,10.525]},{"unique_id":"443","name":"Cordillera Oriental montane forests","TYPE":"TEOW","coordinates":[-73.815,4.306]},{"unique_id":"527","name":"Maracaibo dry forests","TYPE":"TEOW","coordinates":[-70.849,10.043]},{"unique_id":"579","name":"Santa Marta páramo","TYPE":"TEOW","coordinates":[-73.69,10.627]},{"unique_id":"462","name":"Magdalena-Urabá moist forests","TYPE":"TEOW","coordinates":[-76.916,8.538]},{"unique_id":"465","name":"Mato Grosso seasonal forests","TYPE":"TEOW","coordinates":[-50.312,-8.209]},{"unique_id":"505","name":"Xingu-Tocantins-Araguaia moist forests","TYPE":"TEOW","coordinates":[-50.295,-8.013]},{"unique_id":"482","name":"Purus-Madeira moist forests","TYPE":"TEOW","coordinates":[-66.323,-7.512]},{"unique_id":"477","name":"Pernambuco interior forests","TYPE":"TEOW","coordinates":[-35.243,-7.646]},{"unique_id":"792","name":"Tyrrhenian-Adriatic Sclerophyllous and mixed forests","TYPE":"TEOW","coordinates":[15.28,43.86]},{"unique_id":"697","name":"Tian Shan montane conifer forests","TYPE":"TEOW","coordinates":[86.342,43.858]},{"unique_id":"322","name":"Northeastern coastal forests","TYPE":"TEOW","coordinates":[-69.645,43.834]},{"unique_id":"644","name":"Changbai Mountains mixed forests","TYPE":"TEOW","coordinates":[128.954,43.769]},{"unique_id":"636","name":"Cantabrian mixed forests","TYPE":"TEOW","coordinates":[-8.712,40.658]},{"unique_id":"716","name":"Gissaro-Alai open woodlands","TYPE":"TEOW","coordinates":[69.485,43.649]},{"unique_id":"336","name":"Central and Southern Cascades forests","TYPE":"TEOW","coordinates":[-121.199,43.765]},{"unique_id":"665","name":"Rodope montane mixed forests","TYPE":"TEOW","coordinates":[25.644,41.225]},{"unique_id":"686","name":"Hokkaido montane conifer forests","TYPE":"TEOW","coordinates":[141.771,43.439]},{"unique_id":"344","name":"Klamath-Siskiyou forests","TYPE":"TEOW","coordinates":[-123.17,43.613]},{"unique_id":"763","name":"Northeast Siberian coastal tundra","TYPE":"TEOW","coordinates":[160.449,70.902]},{"unique_id":"762","name":"Kola Peninsula tundra","TYPE":"TEOW","coordinates":[29.127,70.867]},{"unique_id":"470","name":"Northwestern Andean montane forests","TYPE":"TEOW","coordinates":[-78.609,-0.42]},{"unique_id":"513","name":"Cauca Valley dry forests","TYPE":"TEOW","coordinates":[-75.486,7.233]},{"unique_id":"526","name":"Magdalena Valley dry forests","TYPE":"TEOW","coordinates":[-75.49,3.499]},{"unique_id":"468","name":"Negro-Branco moist forests","TYPE":"TEOW","coordinates":[-65.962,-0.295]},{"unique_id":"591","name":"Malpelo Island xeric scrub","TYPE":"TEOW","coordinates":[-81.602,3.981]},{"unique_id":"467","name":"Napo moist forests","TYPE":"TEOW","coordinates":[-75.872,-4.988]},{"unique_id":"503","name":"Western Ecuador moist forests","TYPE":"TEOW","coordinates":[-79.986,0.143]},{"unique_id":"764","name":"Northwest Russian-Novaya Zemlya tundra","TYPE":"TEOW","coordinates":[53.265,73.02]},{"unique_id":"495","name":"Tocantins\/Pindare moist forests","TYPE":"TEOW","coordinates":[-48.222,-0.832]},{"unique_id":"568","name":"Guayaquil flooded grasslands","TYPE":"TEOW","coordinates":[-79.646,-2.759]},{"unique_id":"460","name":"Madeira-Tapajós moist forests","TYPE":"TEOW","coordinates":[-62.102,-13.582]},{"unique_id":"493","name":"Tapajós-Xingu moist forests","TYPE":"TEOW","coordinates":[-53.501,-10.38]},{"unique_id":"464","name":"Maranhão Babaçu forests","TYPE":"TEOW","coordinates":[-44.287,-2.522]},{"unique_id":"536","name":"Tumbes-Piura dry forests","TYPE":"TEOW","coordinates":[-81.134,-4.9]},{"unique_id":"769","name":"Wrangel Island arctic desert","TYPE":"TEOW","coordinates":[179.999,71.132]},{"unique_id":"698","name":"East Siberian taiga","TYPE":"TEOW","coordinates":[103.15,54.386]},{"unique_id":"633","name":"Azores temperate mixed forests","TYPE":"TEOW","coordinates":[-25.171,36.941]},{"unique_id":"720","name":"Middle East steppe","TYPE":"TEOW","coordinates":[37.045,33.854]},{"unique_id":"771","name":"Aegean and Western Turkey sclerophyllous and mixed forests","TYPE":"TEOW","coordinates":[26.305,36.99]},{"unique_id":"687","name":"Honshu alpine conifer forests","TYPE":"TEOW","coordinates":[138.612,36.437]},{"unique_id":"689","name":"Mediterranean conifer and mixed forests","TYPE":"TEOW","coordinates":[8.811,36.963]},{"unique_id":"740","name":"Karakoram-West Tibetan Plateau alpine steppe","TYPE":"TEOW","coordinates":[72.736,36.958]},{"unique_id":"408","name":"Pacific Coastal Mountain icefields and tundra","TYPE":"TEOW","coordinates":[-150.221,59.724]},{"unique_id":"585","name":"Caatinga","TYPE":"TEOW","coordinates":[-36.415,-10.509]},{"unique_id":"515","name":"Dry Chaco","TYPE":"TEOW","coordinates":[-64.731,-25.06]},{"unique_id":"310","name":"Sierra Madre Occidental pine-oak forests","TYPE":"TEOW","coordinates":[-102.806,22.125]},{"unique_id":"304","name":"Indus River Delta-Arabian Sea mangroves","TYPE":"TEOW","coordinates":[69.598,22.351]},{"unique_id":"330","name":"Alberta-British Columbia foothills forests","TYPE":"TEOW","coordinates":[-118.066,57.784]},{"unique_id":"810","name":"Kazakh semi-desert","TYPE":"TEOW","coordinates":[77.994,49.437]},{"unique_id":"768","name":"Trans-Baikal Bald Mountain tundra","TYPE":"TEOW","coordinates":[134.779,50.131]},{"unique_id":"724","name":"Selenge-Orkhon forest steppe","TYPE":"TEOW","coordinates":[94.038,49.368]},{"unique_id":"777","name":"Eastern Mediterranean conifer-sclerophyllous-broadleaf forests","TYPE":"TEOW","coordinates":[37.449,32.654]},{"unique_id":"223","name":"Luzon montane rain forests","TYPE":"TEOW","coordinates":[121.338,15.669]},{"unique_id":"142","name":"West Sudanian savanna","TYPE":"TEOW","coordinates":[0.735,8.798]},{"unique_id":"303","name":"Indochina mangroves","TYPE":"TEOW","coordinates":[99.152,10.126]},{"unique_id":"127","name":"Guinean forest-savanna mosaic","TYPE":"TEOW","coordinates":[-14.071,10.113]},{"unique_id":"378","name":"Canadian Aspen forests and parklands","TYPE":"TEOW","coordinates":[-122.109,56.07]},{"unique_id":"478","name":"Peruvian Yungas","TYPE":"TEOW","coordinates":[-77.748,-6.456]},{"unique_id":"528","name":"Marañón dry forests","TYPE":"TEOW","coordinates":[-78.342,-5.084]},{"unique_id":"476","name":"Pernambuco coastal forests","TYPE":"TEOW","coordinates":[-35.761,-7.123]},{"unique_id":"509","name":"Atlantic dry forests","TYPE":"TEOW","coordinates":[-43.372,-7.826]},{"unique_id":"395","name":"Arctic foothills tundra","TYPE":"TEOW","coordinates":[-145.263,69.991]},{"unique_id":"361","name":"Cook Inlet taiga","TYPE":"TEOW","coordinates":[-149.907,60.935]},{"unique_id":"117","name":"Western Guinean lowland forests","TYPE":"TEOW","coordinates":[-6.119,4.991]},{"unique_id":"154","name":"Saharan flooded grasslands","TYPE":"TEOW","coordinates":[33.508,8.453]},{"unique_id":"164","name":"Ethiopian montane grasslands and woodlands","TYPE":"TEOW","coordinates":[35.89,9.02]},{"unique_id":"700","name":"Kamchatka-Kurile meadows and sparse forests","TYPE":"TEOW","coordinates":[164.626,60.371]},{"unique_id":"428","name":"Bahia coastal forests","TYPE":"TEOW","coordinates":[-39.819,-19.622]},{"unique_id":"517","name":"Chiquitano dry forests","TYPE":"TEOW","coordinates":[-60.853,-12.58]},{"unique_id":"574","name":"Central Andean puna","TYPE":"TEOW","coordinates":[-72.011,-14.673]},{"unique_id":"430","name":"Bolivian Yungas","TYPE":"TEOW","coordinates":[-67.296,-16.553]},{"unique_id":"573","name":"Central Andean dry puna","TYPE":"TEOW","coordinates":[-69.429,-25.18]},{"unique_id":"558","name":"Humid Chaco","TYPE":"TEOW","coordinates":[-57.99,-21.502]},{"unique_id":"485","name":"Serra do Mar coastal forests","TYPE":"TEOW","coordinates":[-41.992,-22.606]},{"unique_id":"582","name":"Chilean matorral","TYPE":"TEOW","coordinates":[-71.938,-34.035]},{"unique_id":"581","name":"High Monte","TYPE":"TEOW","coordinates":[-65.463,-24.019]},{"unique_id":"426","name":"Araucaria moist forests","TYPE":"TEOW","coordinates":[-49.333,-23.694]},{"unique_id":"580","name":"Southern Andean steppe","TYPE":"TEOW","coordinates":[-69.316,-26.913]},{"unique_id":"571","name":"Paraná flooded savanna","TYPE":"TEOW","coordinates":[-58.508,-33.903]},{"unique_id":"551","name":"San Félix-San Ambrosio Islands temperate forests","TYPE":"TEOW","coordinates":[-80.082,-26.26]},{"unique_id":"572","name":"Southern Cone Mesopotamian savanna","TYPE":"TEOW","coordinates":[-55.776,-27.439]},{"unique_id":"560","name":"Uruguayan savanna","TYPE":"TEOW","coordinates":[-52.08,-32.151]},{"unique_id":"561","name":"Espinal","TYPE":"TEOW","coordinates":[-59.569,-30.538]},{"unique_id":"562","name":"Low Monte","TYPE":"TEOW","coordinates":[-64.754,-40.797]},{"unique_id":"563","name":"Humid Pampas","TYPE":"TEOW","coordinates":[-58.535,-34.303]},{"unique_id":"549","name":"Juan Fernández Islands temperate forests","TYPE":"TEOW","coordinates":[-78.829,-33.614]},{"unique_id":"758","name":"Bering tundra","TYPE":"TEOW","coordinates":[-179.999,65.93]},{"unique_id":"761","name":"Kamchatka Mountain tundra and forest tundra","TYPE":"TEOW","coordinates":[158.018,51.796]},{"unique_id":"657","name":"Nihonkai evergreen forests","TYPE":"TEOW","coordinates":[133.258,35.552]},{"unique_id":"343","name":"Great Basin montane forests","TYPE":"TEOW","coordinates":[-114.746,39.354]},{"unique_id":"742","name":"Kopet Dag woodlands and forest steppe","TYPE":"TEOW","coordinates":[56.431,37.901]},{"unique_id":"637","name":"Caspian Hyrcanian mixed forests","TYPE":"TEOW","coordinates":[56.431,37.901]},{"unique_id":"293","name":"Eastern Himalayan subalpine conifer forests","TYPE":"TEOW","coordinates":[95.134,29.077]},{"unique_id":"311","name":"Sierra Madre Oriental pine-oak forests","TYPE":"TEOW","coordinates":[-104.211,29.062]},{"unique_id":"292","name":"Western Himalayan broadleaf forests","TYPE":"TEOW","coordinates":[82.387,28.851]},{"unique_id":"357","name":"Southeastern conifer forests","TYPE":"TEOW","coordinates":[-80.589,28.407]},{"unique_id":"216","name":"Himalayan subtropical broadleaf forests","TYPE":"TEOW","coordinates":[80.511,28.945]},{"unique_id":"737","name":"Eastern Himalayan alpine shrub and meadows","TYPE":"TEOW","coordinates":[94.482,28.942]},{"unique_id":"392","name":"Alaska-St. Elias Range tundra","TYPE":"TEOW","coordinates":[-150.401,62.7]},{"unique_id":"750","name":"Sayan Alpine meadows and tundra","TYPE":"TEOW","coordinates":[87.524,51.105]},{"unique_id":"366","name":"Mid-Continental Canadian forests","TYPE":"TEOW","coordinates":[-100.092,51.043]},{"unique_id":"808","name":"Great Lakes Basin desert steppe","TYPE":"TEOW","coordinates":[94.563,46.121]},{"unique_id":"681","name":"Da Hinggan-Dzhagdy Mountains conifer forests","TYPE":"TEOW","coordinates":[126.704,50.989]},{"unique_id":"642","name":"Central European mixed forests","TYPE":"TEOW","coordinates":[31.185,50.868]},{"unique_id":"47","name":"Arnhem Land tropical savanna","TYPE":"TEOW","coordinates":[130.395,-12.626]},{"unique_id":"92","name":"Comoros forests","TYPE":"TEOW","coordinates":[45.036,-12.646]},{"unique_id":"119","name":"Madagascar dry deciduous forests","TYPE":"TEOW","coordinates":[49.662,-12.685]},{"unique_id":"144","name":"Western Zambezian grasslands","TYPE":"TEOW","coordinates":[23.098,-13.26]},{"unique_id":"200","name":"Madagascar mangroves","TYPE":"TEOW","coordinates":[44.927,-16.171]},{"unique_id":"609","name":"Fiji tropical moist forests","TYPE":"TEOW","coordinates":[179.585,-16.191]},{"unique_id":"622","name":"Fiji tropical dry forests","TYPE":"TEOW","coordinates":[178.747,-16.629]},{"unique_id":"413","name":"Baja California desert","TYPE":"TEOW","coordinates":[-113.211,26.737]},{"unique_id":"824","name":"West Saharan montane xeric woodlands","TYPE":"TEOW","coordinates":[10.377,25.59]},{"unique_id":"613","name":"Ogasawara subtropical moist forests","TYPE":"TEOW","coordinates":[142.159,26.698]},{"unique_id":"825","name":"Red Sea coastal desert","TYPE":"TEOW","coordinates":[33.951,26.662]},{"unique_id":"288","name":"Northeast India-Myanmar pine forests","TYPE":"TEOW","coordinates":[95.074,26.476]},{"unique_id":"250","name":"South China-Vietnam subtropical evergreen forests","TYPE":"TEOW","coordinates":[110.119,20.238]},{"unique_id":"271","name":"Nansei Islands subtropical evergreen forests","TYPE":"TEOW","coordinates":[123.759,24.052]},{"unique_id":"300","name":"Northwestern thorn scrub forests","TYPE":"TEOW","coordinates":[70.233,22.995]},{"unique_id":"628","name":"Northwestern Hawaii scrub","TYPE":"TEOW","coordinates":[-166.285,23.865]},{"unique_id":"178","name":"East Saharan montane xeric woodlands","TYPE":"TEOW","coordinates":[22.143,15.446]},{"unique_id":"224","name":"Luzon rain forests","TYPE":"TEOW","coordinates":[119.789,15.781]},{"unique_id":"249","name":"South China Sea Islands","TYPE":"TEOW","coordinates":[111.196,15.781]},{"unique_id":"305","name":"Myanmar Coast mangroves","TYPE":"TEOW","coordinates":[95.018,15.722]},{"unique_id":"153","name":"Lake Chad flooded savanna","TYPE":"TEOW","coordinates":[14.765,12.871]},{"unique_id":"282","name":"South Deccan Plateau dry deciduous forests","TYPE":"TEOW","coordinates":[75.71,14.326]},{"unique_id":"370","name":"Northern Canadian Shield taiga","TYPE":"TEOW","coordinates":[-112.377,60.818]},{"unique_id":"649","name":"East European forest steppe","TYPE":"TEOW","coordinates":[57.005,56.554]},{"unique_id":"359","name":"Alaska Peninsula montane taiga","TYPE":"TEOW","coordinates":[-152.289,57.391]},{"unique_id":"349","name":"Northern transitional alpine forests","TYPE":"TEOW","coordinates":[-130.998,57.085]},{"unique_id":"774","name":"Corsican montane broadleaf and mixed forests","TYPE":"TEOW","coordinates":[8.796,41.956]},{"unique_id":"641","name":"Central China loess plateau mixed forests","TYPE":"TEOW","coordinates":[120.162,42.211]},{"unique_id":"787","name":"Pindus Mountains mixed forests","TYPE":"TEOW","coordinates":[19.719,42.096]},{"unique_id":"753","name":"Tian Shan montane steppe and meadows","TYPE":"TEOW","coordinates":[72.901,42.121]},{"unique_id":"658","name":"Nihonkai montane deciduous forests","TYPE":"TEOW","coordinates":[139.453,42.211]},{"unique_id":"800","name":"Caspian lowland desert","TYPE":"TEOW","coordinates":[52.722,41.418]},{"unique_id":"347","name":"Northern California coastal forests","TYPE":"TEOW","coordinates":[-124.203,40.781]},{"unique_id":"332","name":"Atlantic coastal pine barrens","TYPE":"TEOW","coordinates":[-70.319,41.72]},{"unique_id":"652","name":"Euxine-Colchic broadleaf forests","TYPE":"TEOW","coordinates":[29.097,41.238]},{"unique_id":"778","name":"Iberian conifer forests","TYPE":"TEOW","coordinates":[-2.985,41.813]},{"unique_id":"635","name":"Baltic mixed forests","TYPE":"TEOW","coordinates":[8.989,56.811]},{"unique_id":"457","name":"Japurá-Solimoes-Negro moist forests","TYPE":"TEOW","coordinates":[-65.138,-2.235]},{"unique_id":"488","name":"Solimões-Japurá moist forests","TYPE":"TEOW","coordinates":[-72.988,-3.559]},{"unique_id":"530","name":"Patía Valley dry forests","TYPE":"TEOW","coordinates":[-77.666,1.849]},{"unique_id":"765","name":"Novosibirsk Islands arctic desert","TYPE":"TEOW","coordinates":[149.344,76.738]},{"unique_id":"702","name":"Northeast Siberian taiga","TYPE":"TEOW","coordinates":[155.934,60.823]},{"unique_id":"680","name":"Carpathian montane forests","TYPE":"TEOW","coordinates":[18.458,49.645]},{"unique_id":"752","name":"Sulaiman Range alpine meadows","TYPE":"TEOW","coordinates":[66.791,28.173]},{"unique_id":"290","name":"Eastern Himalayan broadleaf forests","TYPE":"TEOW","coordinates":[85.079,27.995]},{"unique_id":"341","name":"Florida sand pine scrub","TYPE":"TEOW","coordinates":[-80.682,28.24]},{"unique_id":"294","name":"Western Himalayan subalpine conifer forests","TYPE":"TEOW","coordinates":[83.426,28.148]},{"unique_id":"307","name":"Sundarbans mangroves","TYPE":"TEOW","coordinates":[91.022,22.094]},{"unique_id":"313","name":"Appalachian mixed mesophytic forests","TYPE":"TEOW","coordinates":[-79.281,39.691]},{"unique_id":"672","name":"Tarim Basin deciduous forests and steppe","TYPE":"TEOW","coordinates":[87.433,40.092]},{"unique_id":"317","name":"Eastern forest-boreal transition","TYPE":"TEOW","coordinates":[-70.146,47.64]},{"unique_id":"338","name":"Central Pacific coastal forests","TYPE":"TEOW","coordinates":[-126.095,49.392]},{"unique_id":"321","name":"New England-Acadian forests","TYPE":"TEOW","coordinates":[-68.787,44.525]},{"unique_id":"668","name":"South Sakhalin-Kurile mixed forests","TYPE":"TEOW","coordinates":[145.44,43.758]},{"unique_id":"325","name":"Southern Great Lakes forests","TYPE":"TEOW","coordinates":[-86.232,41.046]},{"unique_id":"804","name":"Central Asian southern desert","TYPE":"TEOW","coordinates":[60.184,42.216]},{"unique_id":"318","name":"Eastern Great Lakes lowland forests","TYPE":"TEOW","coordinates":[-76.333,44.246]},{"unique_id":"411","name":"California interior chaparral and woodlands","TYPE":"TEOW","coordinates":[-121.822,38.031]},{"unique_id":"345","name":"Middle Atlantic coastal forests","TYPE":"TEOW","coordinates":[-76.04,38.009]},{"unique_id":"683","name":"Elburz Range forest steppe","TYPE":"TEOW","coordinates":[56.65,37.777]},{"unique_id":"711","name":"Central Anatolian steppe","TYPE":"TEOW","coordinates":[33.739,37.836]},{"unique_id":"314","name":"Appalachian-Blue Ridge forests","TYPE":"TEOW","coordinates":[-78.662,37.945]},{"unique_id":"694","name":"Qionglai-Minshan conifer forests","TYPE":"TEOW","coordinates":[103.842,33.356]},{"unique_id":"744","name":"Mediterranean High Atlas juniper steppe","TYPE":"TEOW","coordinates":[-3.809,33.659]},{"unique_id":"784","name":"Mediterranean woodlands and forests","TYPE":"TEOW","coordinates":[10.868,33.596]},{"unique_id":"812","name":"Mesopotamian shrub desert","TYPE":"TEOW","coordinates":[36.414,33.606]},{"unique_id":"746","name":"Northwestern Himalayan alpine shrub and meadows","TYPE":"TEOW","coordinates":[77.877,32.41]},{"unique_id":"669","name":"Southern Korea evergreen forests","TYPE":"TEOW","coordinates":[126.921,33.487]},{"unique_id":"410","name":"California coastal sage and chaparral","TYPE":"TEOW","coordinates":[-118.579,33.476]},{"unique_id":"316","name":"East Central Texas forests","TYPE":"TEOW","coordinates":[-95.118,33.457]},{"unique_id":"820","name":"South Iran Nubo-Sindian desert and semi-desert","TYPE":"TEOW","coordinates":[65.101,25.316]},{"unique_id":"670","name":"Taiheiyo evergreen forests","TYPE":"TEOW","coordinates":[129.533,33.378]},{"unique_id":"671","name":"Taiheiyo montane deciduous forests","TYPE":"TEOW","coordinates":[130.865,32.072]},{"unique_id":"415","name":"Chihuahuan desert","TYPE":"TEOW","coordinates":[-111.619,31.94]},{"unique_id":"382","name":"Edwards Plateau savanna","TYPE":"TEOW","coordinates":[-97.435,31.385]},{"unique_id":"376","name":"Western Gulf coastal grasslands","TYPE":"TEOW","coordinates":[-94.836,29.281]},{"unique_id":"755","name":"Western Himalayan alpine shrub and Meadows","TYPE":"TEOW","coordinates":[83.608,29.338]},{"unique_id":"295","name":"Terai-Duar savanna and grasslands","TYPE":"TEOW","coordinates":[80.511,28.945]},{"unique_id":"731","name":"Saharan halophytics","TYPE":"TEOW","coordinates":[26.04,29.088]},{"unique_id":"782","name":"Mediterranean acacia-argania dry woodlands and succulent thickets","TYPE":"TEOW","coordinates":[-13.537,29.293]},{"unique_id":"286","name":"Himalayan subtropical pine forests","TYPE":"TEOW","coordinates":[81.267,29.292]},{"unique_id":"399","name":"Brooks-British Range tundra","TYPE":"TEOW","coordinates":[-161.618,67.466]},{"unique_id":"372","name":"Northwest Territories taiga","TYPE":"TEOW","coordinates":[-135.131,68.646]},{"unique_id":"365","name":"Interior Alaska-Yukon lowland taiga","TYPE":"TEOW","coordinates":[-161.705,66.994]},{"unique_id":"708","name":"West Siberian taiga","TYPE":"TEOW","coordinates":[70.03,66.418]},{"unique_id":"707","name":"Ural montane forests and tundra","TYPE":"TEOW","coordinates":[57.718,57.855]},{"unique_id":"207","name":"Cardamom Mountains rain forests","TYPE":"TEOW","coordinates":[104.352,9.672]},{"unique_id":"298","name":"Deccan thorn scrub forests","TYPE":"TEOW","coordinates":[79.773,9.645]},{"unique_id":"226","name":"Maldives-Lakshadweep-Chagos Archipelago tropical moist forests","TYPE":"TEOW","coordinates":[73.662,10.141]},{"unique_id":"703","name":"Okhotsk-Manchurian taiga","TYPE":"TEOW","coordinates":[138.152,54.992]},{"unique_id":"407","name":"Ogilvie-MacKenzie alpine tundra","TYPE":"TEOW","coordinates":[-136.24,65.728]},{"unique_id":"368","name":"Muskwa-Slave Lake forests","TYPE":"TEOW","coordinates":[-118.066,57.784]},{"unique_id":"374","name":"Southern Hudson Bay taiga","TYPE":"TEOW","coordinates":[-80.082,53.246]},{"unique_id":"656","name":"Manchurian mixed forests","TYPE":"TEOW","coordinates":[126.695,51.606]},{"unique_id":"678","name":"Altai montane forest and forest steppe","TYPE":"TEOW","coordinates":[94.563,46.121]},{"unique_id":"648","name":"Dinaric Mountains mixed forests","TYPE":"TEOW","coordinates":[20.224,42.458]},{"unique_id":"806","name":"Eastern Gobi desert steppe","TYPE":"TEOW","coordinates":[103.646,44.207]},{"unique_id":"662","name":"Po Basin mixed forests","TYPE":"TEOW","coordinates":[13.376,45.721]},{"unique_id":"722","name":"Pontic steppe","TYPE":"TEOW","coordinates":[32.029,46.174]},{"unique_id":"733","name":"Suiphun-Khanka meadows and forest meadows","TYPE":"TEOW","coordinates":[131.993,43.317]},{"unique_id":"333","name":"Blue Mountains forests","TYPE":"TEOW","coordinates":[-116.228,45.65]},{"unique_id":"327","name":"Western Great Lakes forests","TYPE":"TEOW","coordinates":[-84.198,46.294]},{"unique_id":"803","name":"Central Asian riparian woodlands","TYPE":"TEOW","coordinates":[60.924,46.001]},{"unique_id":"381","name":"Central tall grasslands","TYPE":"TEOW","coordinates":[-97.393,46.202]},{"unique_id":"308","name":"Sonoran-Sinaloan transition subtropical dry forest","TYPE":"TEOW","coordinates":[-110.719,29.065]},{"unique_id":"418","name":"Gulf of California xeric scrub","TYPE":"TEOW","coordinates":[-113.499,29.04]},{"unique_id":"32","name":"Timor and Wetar deciduous forests","TYPE":"TEOW","coordinates":[121.592,-10.634]},{"unique_id":"10","name":"Louisiade Archipelago rain forests","TYPE":"TEOW","coordinates":[152.566,-10.621]},{"unique_id":"20","name":"Southeastern Papuan rain forests","TYPE":"TEOW","coordinates":[150.658,-10.647]},{"unique_id":"156","name":"Zambezian flooded grasslands","TYPE":"TEOW","coordinates":[29.784,-10.911]},{"unique_id":"26","name":"Vanuatu rain forests","TYPE":"TEOW","coordinates":[166.031,-10.776]},{"unique_id":"49","name":"Cape York Peninsula tropical savanna","TYPE":"TEOW","coordinates":[145.232,-15.522]},{"unique_id":"115","name":"Southern Zanzibar-Inhambane coastal forest mosaic","TYPE":"TEOW","coordinates":[40.65,-10.795]},{"unique_id":"172","name":"Southern Rift montane forest-grassland mosaic","TYPE":"TEOW","coordinates":[34.037,-11.401]},{"unique_id":"679","name":"Caledon conifer forests","TYPE":"TEOW","coordinates":[-4.019,57.858]},{"unique_id":"706","name":"Trans-Baikal conifer forests","TYPE":"TEOW","coordinates":[113.089,49.596]},{"unique_id":"319","name":"Gulf of St. Lawrence lowland forests","TYPE":"TEOW","coordinates":[-64.665,47.716]},{"unique_id":"802","name":"Central Asian northern desert","TYPE":"TEOW","coordinates":[73.516,44.068]},{"unique_id":"729","name":"Nenjiang River grassland","TYPE":"TEOW","coordinates":[125.25,46.284]},{"unique_id":"326","name":"Upper Midwest forest-savanna transition","TYPE":"TEOW","coordinates":[-90.165,42.085]},{"unique_id":"421","name":"Snake-Columbia shrub steppe","TYPE":"TEOW","coordinates":[-120.327,47.557]},{"unique_id":"660","name":"Northeast China Plain deciduous forests","TYPE":"TEOW","coordinates":[121.402,39.359]},{"unique_id":"728","name":"Bohai Sea saline meadow","TYPE":"TEOW","coordinates":[118.891,39.122]},{"unique_id":"786","name":"Northwest Iberian montane forests","TYPE":"TEOW","coordinates":[-7.51,39.316]},{"unique_id":"625","name":"Yap tropical dry forests","TYPE":"TEOW","coordinates":[138.14,9.52]},{"unique_id":"375","name":"Yukon Interior dry forests","TYPE":"TEOW","coordinates":[-136.303,60.4]},{"unique_id":"362","name":"Copper Plateau taiga","TYPE":"TEOW","coordinates":[-147.035,61.937]},{"unique_id":"371","name":"Northern Cordillera forests","TYPE":"TEOW","coordinates":[-122.809,57.08]},{"unique_id":"715","name":"Faroe Islands boreal grasslands","TYPE":"TEOW","coordinates":[-6.44,62.281]},{"unique_id":"386","name":"Northern mixed grasslands","TYPE":"TEOW","coordinates":[-97.393,46.202]},{"unique_id":"651","name":"English Lowlands beech forests","TYPE":"TEOW","coordinates":[-2.999,51.355]},{"unique_id":"793","name":"Afghan Mountains semi-desert","TYPE":"TEOW","coordinates":[67.53,35.501]},{"unique_id":"738","name":"Ghorat-Hazarajat alpine meadow","TYPE":"TEOW","coordinates":[67.53,35.501]},{"unique_id":"776","name":"Cyprus Mediterranean forests","TYPE":"TEOW","coordinates":[34.597,35.697]},{"unique_id":"801","name":"Central Afghan Mountains xeric woodlands","TYPE":"TEOW","coordinates":[66.324,32.765]},{"unique_id":"783","name":"Mediterranean dry woodlands and steppe","TYPE":"TEOW","coordinates":[23.123,32.497]},{"unique_id":"736","name":"Central Tibetan Plateau alpine steppe","TYPE":"TEOW","coordinates":[79.924,32.91]},{"unique_id":"655","name":"Madeira evergreen forests","TYPE":"TEOW","coordinates":[-16.943,32.635]},{"unique_id":"704","name":"Sakhalin Island taiga","TYPE":"TEOW","coordinates":[142.17,50.08]},{"unique_id":"725","name":"South Siberian forest steppe","TYPE":"TEOW","coordinates":[103.15,54.386]},{"unique_id":"695","name":"Sayan montane conifer forests","TYPE":"TEOW","coordinates":[95.032,53.778]},{"unique_id":"202","name":"Andaman Islands rain forests","TYPE":"TEOW","coordinates":[92.545,11.555]},{"unique_id":"167","name":"Jos Plateau forest-grassland mosaic","TYPE":"TEOW","coordinates":[8.603,9.934]},{"unique_id":"284","name":"Southern Vietnam lowland dry forests","TYPE":"TEOW","coordinates":[108.947,10.55]},{"unique_id":"721","name":"Mongolian-Manchurian grassland","TYPE":"TEOW","coordinates":[120.162,42.211]},{"unique_id":"723","name":"Sayan Intermontane steppe","TYPE":"TEOW","coordinates":[96.732,50.75]},{"unique_id":"713","name":"Eastern Anatolian montane steppe","TYPE":"TEOW","coordinates":[45.494,37.464]},{"unique_id":"367","name":"Midwestern Canadian Shield forests","TYPE":"TEOW","coordinates":[-101.547,57.86]},{"unique_id":"674","name":"Western Siberian hemiboreal forests","TYPE":"TEOW","coordinates":[61.086,55.409]},{"unique_id":"701","name":"Kamchatka-Kurile taiga","TYPE":"TEOW","coordinates":[160.291,57.009]},{"unique_id":"337","name":"Central British Columbia Mountain forests","TYPE":"TEOW","coordinates":[-122.929,56.879]},{"unique_id":"717","name":"Kazakh forest steppe","TYPE":"TEOW","coordinates":[86.645,51.309]},{"unique_id":"342","name":"Fraser Plateau and Basin complex","TYPE":"TEOW","coordinates":[-127.307,55.001]},{"unique_id":"718","name":"Kazakh steppe","TYPE":"TEOW","coordinates":[67.422,53.65]},{"unique_id":"329","name":"Alberta Mountain forests","TYPE":"TEOW","coordinates":[-120.074,53.905]},{"unique_id":"346","name":"North Central Rockies forests","TYPE":"TEOW","coordinates":[-114.566,51.175]},{"unique_id":"739","name":"Hindu Kush alpine meadow","TYPE":"TEOW","coordinates":[70.397,34.863]},{"unique_id":"693","name":"Qilian Mountains conifer forests","TYPE":"TEOW","coordinates":[100.437,34.895]},{"unique_id":"422","name":"Sonoran desert","TYPE":"TEOW","coordinates":[-113.626,31.415]},{"unique_id":"83","name":"New Guinea mangroves","TYPE":"TEOW","coordinates":[143.85,-8.032]},{"unique_id":"2","name":"Banda Sea Islands moist deciduous forests","TYPE":"TEOW","coordinates":[131.09,-8.051]},{"unique_id":"112","name":"Northern Zanzibar-Inhambane coastal forest mosaic","TYPE":"TEOW","coordinates":[39.714,-8.049]},{"unique_id":"128","name":"Itigi-Sumbu thicket","TYPE":"TEOW","coordinates":[30.54,-8.097]},{"unique_id":"199","name":"Guinean mangroves","TYPE":"TEOW","coordinates":[-12.489,7.506]},{"unique_id":"90","name":"Cameroonian Highlands forests","TYPE":"TEOW","coordinates":[10.698,7.515]},{"unique_id":"203","name":"Borneo lowland rain forests","TYPE":"TEOW","coordinates":[115.586,6.193]},{"unique_id":"257","name":"Sulu Archipelago rain forests","TYPE":"TEOW","coordinates":[120.971,6.201]},{"unique_id":"197","name":"Central African mangroves","TYPE":"TEOW","coordinates":[0.667,5.774]},{"unique_id":"306","name":"Sunda Shelf mangroves","TYPE":"TEOW","coordinates":[116.141,6.058]},{"unique_id":"773","name":"Canary Islands dry woodlands and forests","TYPE":"TEOW","coordinates":[-15.421,27.817]},{"unique_id":"261","name":"Sumatran peat swamp forests","TYPE":"TEOW","coordinates":[103.169,0.497]},{"unique_id":"95","name":"East African montane forests","TYPE":"TEOW","coordinates":[37.21,-0.344]},{"unique_id":"247","name":"Peninsular Malaysian rain forests","TYPE":"TEOW","coordinates":[104.091,0.608]},{"unique_id":"114","name":"Sao Tome, Principe and Annobon moist lowland forests","TYPE":"TEOW","coordinates":[6.537,0.033]},{"unique_id":"6","name":"Halmahera rain forests","TYPE":"TEOW","coordinates":[127.376,0.287]},{"unique_id":"262","name":"Sundaland heath forests","TYPE":"TEOW","coordinates":[110.25,-1.52]},{"unique_id":"15","name":"Northern New Guinea lowland rain and freshwater swamp forests","TYPE":"TEOW","coordinates":[142.208,-3.102]},{"unique_id":"258","name":"Sumatran freshwater swamp forests","TYPE":"TEOW","coordinates":[103.712,-1.568]},{"unique_id":"205","name":"Borneo peat swamp forests","TYPE":"TEOW","coordinates":[111.204,-2.423]},{"unique_id":"8","name":"Yapen rain forests","TYPE":"TEOW","coordinates":[135.839,-1.651]},{"unique_id":"124","name":"Central Zambezian Miombo woodlands","TYPE":"TEOW","coordinates":[31.858,-1.745]},{"unique_id":"11","name":"New Britain-New Ireland lowland rain forests","TYPE":"TEOW","coordinates":[150.027,-1.679]},{"unique_id":"23","name":"Sulawesi lowland rain forests","TYPE":"TEOW","coordinates":[124.335,-1.9]},{"unique_id":"712","name":"Daurian forest steppe","TYPE":"TEOW","coordinates":[113.089,49.596]},{"unique_id":"743","name":"Kuh Rud and Eastern Iran montane woodlands","TYPE":"TEOW","coordinates":[60.876,35.779]},{"unique_id":"412","name":"California montane chaparral and woodlands","TYPE":"TEOW","coordinates":[-116.658,34.032]},{"unique_id":"790","name":"Southern Anatolian montane conifer and deciduous forests","TYPE":"TEOW","coordinates":[36.353,35.82]},{"unique_id":"775","name":"Crete Mediterranean forests","TYPE":"TEOW","coordinates":[26.233,35.03]},{"unique_id":"682","name":"East Afghan montane conifer forests","TYPE":"TEOW","coordinates":[70.684,34.881]},{"unique_id":"751","name":"Southeast Tibet shrublands and meadows","TYPE":"TEOW","coordinates":[103.842,33.356]},{"unique_id":"331","name":"Arizona Mountains forests","TYPE":"TEOW","coordinates":[-107.164,35.454]},{"unique_id":"799","name":"Baluchistan xeric woodlands","TYPE":"TEOW","coordinates":[65.753,25.377]},{"unique_id":"423","name":"Tamaulipan matorral","TYPE":"TEOW","coordinates":[-100.097,26.846]},{"unique_id":"823","name":"Tibesti-Jebel Uweinat montane xeric woodlands","TYPE":"TEOW","coordinates":[17.992,19.641]},{"unique_id":"101","name":"Guinean montane forests","TYPE":"TEOW","coordinates":[-12.947,11.291]},{"unique_id":"335","name":"Cascade Mountains leeward forests","TYPE":"TEOW","coordinates":[-123.532,50.799]},{"unique_id":"675","name":"Western European broadleaf forests","TYPE":"TEOW","coordinates":[16.304,50.112]},{"unique_id":"387","name":"Northern short grasslands","TYPE":"TEOW","coordinates":[-104.692,44.103]},{"unique_id":"350","name":"Okanagan dry forests","TYPE":"TEOW","coordinates":[-121.54,50.998]},{"unique_id":"727","name":"Amur meadow steppe","TYPE":"TEOW","coordinates":[126.695,51.606]},{"unique_id":"384","name":"Montana Valley and Foothill grasslands","TYPE":"TEOW","coordinates":[-111.959,45.733]},{"unique_id":"388","name":"Northern tall grasslands","TYPE":"TEOW","coordinates":[-99.477,50.416]},{"unique_id":"673","name":"Ussuri broadleaf and mixed forests","TYPE":"TEOW","coordinates":[136.369,44.807]},{"unique_id":"710","name":"Altai steppe and semi-desert","TYPE":"TEOW","coordinates":[83.032,47.198]},{"unique_id":"661","name":"Pannonian mixed forests","TYPE":"TEOW","coordinates":[15.694,45.816]},{"unique_id":"809","name":"Junggar Basin semi-desert","TYPE":"TEOW","coordinates":[93.882,43.116]},{"unique_id":"389","name":"Palouse grasslands","TYPE":"TEOW","coordinates":[-116.952,45.819]},{"unique_id":"677","name":"Alps conifer and mixed forests","TYPE":"TEOW","coordinates":[14.104,46.373]},{"unique_id":"714","name":"Emin Valley steppe","TYPE":"TEOW","coordinates":[80.208,46.914]},{"unique_id":"340","name":"Eastern Cascades forests","TYPE":"TEOW","coordinates":[-121.631,44.415]},{"unique_id":"356","name":"South Central Rockies forests","TYPE":"TEOW","coordinates":[-109.176,45.1]},{"unique_id":"373","name":"South Avalon-Burin oceanic barrens","TYPE":"TEOW","coordinates":[-55.763,46.851]},{"unique_id":"807","name":"Gobi Lakes Valley desert steppe","TYPE":"TEOW","coordinates":[96.571,46.392]},{"unique_id":"726","name":"Tian Shan foothill arid steppe","TYPE":"TEOW","coordinates":[76.896,42.593]},{"unique_id":"328","name":"Willamette Valley forests","TYPE":"TEOW","coordinates":[-123.17,43.613]},{"unique_id":"780","name":"Illyrian deciduous forests","TYPE":"TEOW","coordinates":[20.269,39.388]},{"unique_id":"794","name":"Alashan Plateau semi-desert","TYPE":"TEOW","coordinates":[103.646,44.207]},{"unique_id":"785","name":"Northeastern Spain and Southern France Mediterranean forests","TYPE":"TEOW","coordinates":[6.843,43.41]},{"unique_id":"425","name":"Wyoming Basin shrub steppe","TYPE":"TEOW","coordinates":[-107.156,43.917]},{"unique_id":"646","name":"Crimean Submediterranean forest complex","TYPE":"TEOW","coordinates":[33.643,44.424]},{"unique_id":"748","name":"Pamir alpine desert and tundra","TYPE":"TEOW","coordinates":[71.345,38.799]},{"unique_id":"815","name":"Persian Gulf desert and semi-desert","TYPE":"TEOW","coordinates":[48.106,29.721]},{"unique_id":"756","name":"Yarlung Tsangpo arid steppe","TYPE":"TEOW","coordinates":[85.079,29.819]},{"unique_id":"302","name":"Goadavari-Krishna mangroves","TYPE":"TEOW","coordinates":[86.795,20.432]},{"unique_id":"275","name":"Central Indochina dry forests","TYPE":"TEOW","coordinates":[99.563,19.728]},{"unique_id":"236","name":"North Western Ghats montane rain forests","TYPE":"TEOW","coordinates":[75.418,12.711]},{"unique_id":"623","name":"Hawaii tropical dry forests","TYPE":"TEOW","coordinates":[-154.969,19.361]},{"unique_id":"627","name":"Hawaii tropical low shrublands","TYPE":"TEOW","coordinates":[-155.892,20.24]},{"unique_id":"610","name":"Hawaii tropical moist forests","TYPE":"TEOW","coordinates":[-155.069,19.731]},{"unique_id":"222","name":"Luang Prabang montane rain forests","TYPE":"TEOW","coordinates":[104.305,19.208]},{"unique_id":"624","name":"Marianas tropical dry forests","TYPE":"TEOW","coordinates":[145.211,20.026]},{"unique_id":"225","name":"Malabar Coast moist forests","TYPE":"TEOW","coordinates":[72.975,18.502]},{"unique_id":"260","name":"Sumatran montane rain forests","TYPE":"TEOW","coordinates":[99.077,2.229]},{"unique_id":"605","name":"Carolines tropical moist forests","TYPE":"TEOW","coordinates":[163.018,5.326]},{"unique_id":"289","name":"Sumatran tropical pine forests","TYPE":"TEOW","coordinates":[96.915,4.579]},{"unique_id":"30","name":"New Caledonia dry forests","TYPE":"TEOW","coordinates":[166.519,-22.233]},{"unique_id":"266","name":"Tonle Sap-Mekong peat swamp forests","TYPE":"TEOW","coordinates":[104.642,10.133]},{"unique_id":"634","name":"Balkan mixed forests","TYPE":"TEOW","coordinates":[27.433,42.438]},{"unique_id":"653","name":"Hokkaido deciduous forests","TYPE":"TEOW","coordinates":[143.459,44.286]},{"unique_id":"781","name":"Italian sclerophyllous and semi-deciduous forests","TYPE":"TEOW","coordinates":[11.079,42.421]},{"unique_id":"631","name":"Appenine deciduous montane forests","TYPE":"TEOW","coordinates":[10.709,44.084]},{"unique_id":"709","name":"Alai-Western Tian Shan steppe","TYPE":"TEOW","coordinates":[69.485,43.649]},{"unique_id":"638","name":"Caucasus mixed forests","TYPE":"TEOW","coordinates":[40.292,43.184]},{"unique_id":"417","name":"Great Basin shrub steppe","TYPE":"TEOW","coordinates":[-115.077,36.615]},{"unique_id":"663","name":"Pyrenees conifer and mixed forests","TYPE":"TEOW","coordinates":[-1.336,42.893]},{"unique_id":"822","name":"Taklimakan desert","TYPE":"TEOW","coordinates":[83.834,38.272]},{"unique_id":"391","name":"Western short grasslands","TYPE":"TEOW","coordinates":[-105.194,41.959]},{"unique_id":"385","name":"Nebraska Sand Hills mixed grasslands","TYPE":"TEOW","coordinates":[-98.661,42.451]},{"unique_id":"312","name":"Allegheny Highlands forests","TYPE":"TEOW","coordinates":[-77.624,41.105]},{"unique_id":"779","name":"Iberian sclerophyllous and semi-deciduous forests","TYPE":"TEOW","coordinates":[-0.755,37.789]},{"unique_id":"339","name":"Colorado Rockies forests","TYPE":"TEOW","coordinates":[-106.196,40.857]},{"unique_id":"380","name":"Central forest-grasslands transition","TYPE":"TEOW","coordinates":[-86.59,41.941]},{"unique_id":"358","name":"Wasatch and Uinta montane forests","TYPE":"TEOW","coordinates":[-111.593,42.626]},{"unique_id":"379","name":"Central and Southern mixed grasslands","TYPE":"TEOW","coordinates":[-99.137,31.248]},{"unique_id":"691","name":"Northern Anatolian conifer and deciduous forests","TYPE":"TEOW","coordinates":[36.307,40.54]},{"unique_id":"797","name":"Azerbaijan shrub desert and steppe","TYPE":"TEOW","coordinates":[48.815,38.968]},{"unique_id":"788","name":"South Appenine mixed montane forests","TYPE":"TEOW","coordinates":[15.627,40.292]},{"unique_id":"355","name":"Sierra Nevada forests","TYPE":"TEOW","coordinates":[-121.953,40.707]},{"unique_id":"416","name":"Colorado Plateau shrublands","TYPE":"TEOW","coordinates":[-106.469,35.151]},{"unique_id":"772","name":"Anatolian conifer and deciduous mixed forests","TYPE":"TEOW","coordinates":[29.889,40.712]},{"unique_id":"791","name":"Southwest Iberian Mediterranean sclerophyllous and mixed forests","TYPE":"TEOW","coordinates":[-6.279,36.527]},{"unique_id":"377","name":"California Central Valley grasslands","TYPE":"TEOW","coordinates":[-122.1,38.066]},{"unique_id":"747","name":"Ordos Plateau steppe","TYPE":"TEOW","coordinates":[108.799,40.644]},{"unique_id":"640","name":"Central Anatolian steppe and woodlands","TYPE":"TEOW","coordinates":[33.413,39.969]},{"unique_id":"650","name":"Eastern Anatolian deciduous forests","TYPE":"TEOW","coordinates":[37.067,39.296]},{"unique_id":"643","name":"Central Korean deciduous forests","TYPE":"TEOW","coordinates":[126.37,35.181]},{"unique_id":"654","name":"Huang He Plain mixed forests","TYPE":"TEOW","coordinates":[119.849,37.345]},{"unique_id":"315","name":"Central U.S. hardwood forests","TYPE":"TEOW","coordinates":[-83.412,39.114]},{"unique_id":"749","name":"Qilian Mountains subalpine meadows","TYPE":"TEOW","coordinates":[99.658,38.722]},{"unique_id":"324","name":"Southeastern mixed forests","TYPE":"TEOW","coordinates":[-76.09,39.537]},{"unique_id":"383","name":"Flint Hills tall grasslands","TYPE":"TEOW","coordinates":[-96.598,39.732]},{"unique_id":"684","name":"Helanshan montane conifer forests","TYPE":"TEOW","coordinates":[105.091,37.445]},{"unique_id":"816","name":"Qaidam Basin semi-desert","TYPE":"TEOW","coordinates":[94.701,39.48]},{"unique_id":"811","name":"Kopet Dag semi-desert","TYPE":"TEOW","coordinates":[58.487,38.026]},{"unique_id":"745","name":"North Tibetan Plateau-Kunlun Mountains alpine desert","TYPE":"TEOW","coordinates":[80.594,35.829]},{"unique_id":"798","name":"Badghyz and Karabil semi-desert","TYPE":"TEOW","coordinates":[66.758,38.05]},{"unique_id":"676","name":"Zagros Mountains forest steppe","TYPE":"TEOW","coordinates":[45.77,34.499]},{"unique_id":"814","name":"Paropamisus xeric woodlands","TYPE":"TEOW","coordinates":[63.457,34.692]},{"unique_id":"420","name":"Mojave desert","TYPE":"TEOW","coordinates":[-117.08,36.227]},{"unique_id":"789","name":"Southeastern Iberian shrubs and woodlands","TYPE":"TEOW","coordinates":[-1.173,37.647]},{"unique_id":"805","name":"Central Persian desert basins","TYPE":"TEOW","coordinates":[57.433,33.748]},{"unique_id":"734","name":"Yellow Sea saline meadow","TYPE":"TEOW","coordinates":[120.334,34.113]},{"unique_id":"664","name":"Qin Ling Mountains deciduous forests","TYPE":"TEOW","coordinates":[104.519,34.579]},{"unique_id":"730","name":"Nile Delta flooded savanna","TYPE":"TEOW","coordinates":[32.023,31.267]},{"unique_id":"645","name":"Changjiang Plain evergreen forests","TYPE":"TEOW","coordinates":[119.712,32.264]},{"unique_id":"299","name":"Indus Valley desert","TYPE":"TEOW","coordinates":[71.247,32.15]},{"unique_id":"813","name":"North Saharan steppe and woodlands","TYPE":"TEOW","coordinates":[23.287,32.224]},{"unique_id":"732","name":"Tigris-Euphrates alluvial salt marsh","TYPE":"TEOW","coordinates":[45.327,31.642]},{"unique_id":"817","name":"Red Sea Nubo-Sindian tropical desert and semi-desert","TYPE":"TEOW","coordinates":[39.213,27.058]},{"unique_id":"219","name":"Jian Nan subtropical evergreen forests","TYPE":"TEOW","coordinates":[119.211,26.07]},{"unique_id":"147","name":"Al Hajar montane woodlands","TYPE":"TEOW","coordinates":[58.74,22.411]},{"unique_id":"116","name":"Western Congolian swamp forests","TYPE":"TEOW","coordinates":[16.213,-2.739]},{"unique_id":"246","name":"Peninsular Malaysian peat swamp forests","TYPE":"TEOW","coordinates":[101.323,3.784]},{"unique_id":"618","name":"Tongan tropical moist forests","TYPE":"TEOW","coordinates":[-174.78,-20.235]},{"unique_id":"198","name":"East African mangroves","TYPE":"TEOW","coordinates":[34.66,-20.392]},{"unique_id":"79","name":"Pilbara shrublands","TYPE":"TEOW","coordinates":[116.842,-20.372]},{"unique_id":"28","name":"Vogelkop-Aru lowland rain forests","TYPE":"TEOW","coordinates":[130.182,-0.296]},{"unique_id":"614","name":"Palau tropical moist forests","TYPE":"TEOW","coordinates":[134.554,7.33]},{"unique_id":"259","name":"Sumatran lowland rain forests","TYPE":"TEOW","coordinates":[95.114,5.618]},{"unique_id":"320","name":"Mississippi lowland forests","TYPE":"TEOW","coordinates":[-89.819,30.048]},{"unique_id":"754","name":"Tibetan Plateau alpine shrublands and meadows","TYPE":"TEOW","coordinates":[90.25,29.876]},{"unique_id":"323","name":"Ozark Mountain forests","TYPE":"TEOW","coordinates":[-94.586,34.072]},{"unique_id":"351","name":"Piney Woods forests","TYPE":"TEOW","coordinates":[-95.869,30.659]},{"unique_id":"118","name":"Cape Verde Islands dry forests","TYPE":"TEOW","coordinates":[-23.154,15.307]},{"unique_id":"125","name":"East Sudanian savanna","TYPE":"TEOW","coordinates":[32.958,4.072]},{"unique_id":"209","name":"Chao Phraya lowland moist deciduous forests","TYPE":"TEOW","coordinates":[99.418,14.217]},{"unique_id":"234","name":"Nicobar Islands rain forests","TYPE":"TEOW","coordinates":[92.765,9.124]},{"unique_id":"621","name":"Western Polynesian tropical moist forests","TYPE":"TEOW","coordinates":[178.41,-7.997]},{"unique_id":"141","name":"Victoria Basin forest-savanna mosaic","TYPE":"TEOW","coordinates":[32.301,-0.427]},{"unique_id":"24","name":"Sulawesi montane rain forests","TYPE":"TEOW","coordinates":[120.187,-0.94]},{"unique_id":"136","name":"Southern Acacia-Commiphora bushlands and thickets","TYPE":"TEOW","coordinates":[34.013,-0.504]},{"unique_id":"143","name":"Western Congolian forest-savanna mosaic","TYPE":"TEOW","coordinates":[11.711,-4.471]},{"unique_id":"390","name":"Texas blackland prairies","TYPE":"TEOW","coordinates":[-95.288,33.457]},{"unique_id":"795","name":"Arabian Desert and East Sahero-Arabian xeric shrublands","TYPE":"TEOW","coordinates":[53.264,24.089]},{"unique_id":"647","name":"Daba Mountains evergreen forests","TYPE":"TEOW","coordinates":[104.348,32.525]},{"unique_id":"818","name":"Registan-North Pakistan sandy desert","TYPE":"TEOW","coordinates":[66.059,31.28]},{"unique_id":"354","name":"Sierra Juarez and San Pedro Martir pine-oak forests","TYPE":"TEOW","coordinates":[-116.078,32.609]},{"unique_id":"692","name":"Nujiang Langcang Gorge alpine conifer and mixed forests","TYPE":"TEOW","coordinates":[93.744,31.924]},{"unique_id":"685","name":"Hengduan Mountains subalpine conifer forests","TYPE":"TEOW","coordinates":[98.965,29.183]},{"unique_id":"309","name":"Bermuda subtropical conifer forests","TYPE":"TEOW","coordinates":[-64.857,32.267]},{"unique_id":"667","name":"Sichuan Basin evergreen broadleaf forests","TYPE":"TEOW","coordinates":[104.149,28.605]},{"unique_id":"629","name":"Guizhou Plateau broadleaf and mixed forests","TYPE":"TEOW","coordinates":[111.617,30.578]},{"unique_id":"218","name":"Irrawaddy moist deciduous forests","TYPE":"TEOW","coordinates":[97.788,16.84]},{"unique_id":"217","name":"Irrawaddy freshwater swamp forests","TYPE":"TEOW","coordinates":[94.715,16.689]},{"unique_id":"278","name":"Irrawaddy dry forests","TYPE":"TEOW","coordinates":[97.788,16.84]},{"unique_id":"208","name":"Chao Phraya freshwater swamp forests","TYPE":"TEOW","coordinates":[99.893,14.499]},{"unique_id":"152","name":"Inner Niger Delta flooded savanna","TYPE":"TEOW","coordinates":[-4.01,14.678]},{"unique_id":"177","name":"Arabian Peninsula coastal fog desert","TYPE":"TEOW","coordinates":[41.943,16.953]},{"unique_id":"283","name":"Southeastern Indochina dry evergreen forests","TYPE":"TEOW","coordinates":[101.445,16.226]},{"unique_id":"193","name":"Somali montane xeric woodlands","TYPE":"TEOW","coordinates":[50.547,11.86]},{"unique_id":"229","name":"Mindanao montane rain forests","TYPE":"TEOW","coordinates":[124.213,6.64]},{"unique_id":"690","name":"Northeastern Himalayan subalpine conifer forests","TYPE":"TEOW","coordinates":[95.359,28.765]},{"unique_id":"267","name":"Upper Gangetic Plains moist deciduous forests","TYPE":"TEOW","coordinates":[77.177,28.359]},{"unique_id":"819","name":"Sahara desert","TYPE":"TEOW","coordinates":[24.905,22.018]},{"unique_id":"301","name":"Thar desert","TYPE":"TEOW","coordinates":[69.243,24.253]},{"unique_id":"424","name":"Tamaulipan mezquital","TYPE":"TEOW","coordinates":[-97.805,24.41]},{"unique_id":"630","name":"Yunnan Plateau subtropical evergreen forests","TYPE":"TEOW","coordinates":[106.494,24.054]},{"unique_id":"279","name":"Khathiar-Gir dry deciduous forests","TYPE":"TEOW","coordinates":[72.747,21.448]},{"unique_id":"206","name":"Brahmaputra Valley semi-evergreen forests","TYPE":"TEOW","coordinates":[92.116,26.916]},{"unique_id":"291","name":"Northern Triangle temperate forests","TYPE":"TEOW","coordinates":[95.283,26.644]},{"unique_id":"241","name":"Northern Triangle subtropical forests","TYPE":"TEOW","coordinates":[95.264,26.644]},{"unique_id":"221","name":"Lower Gangetic Plains moist deciduous forests","TYPE":"TEOW","coordinates":[91.976,21.472]},{"unique_id":"796","name":"Atlantic coastal desert","TYPE":"TEOW","coordinates":[-16.299,19.866]},{"unique_id":"238","name":"Northern Indochina subtropical forests","TYPE":"TEOW","coordinates":[105.499,23.386]},{"unique_id":"232","name":"Mizoram-Manipur-Kachin rain forests","TYPE":"TEOW","coordinates":[95.06,26.649]},{"unique_id":"227","name":"Meghalaya subtropical forests","TYPE":"TEOW","coordinates":[89.885,25.673]},{"unique_id":"181","name":"Gulf of Oman desert and semi-desert","TYPE":"TEOW","coordinates":[54.563,24.477]},{"unique_id":"419","name":"Meseta Central matorral","TYPE":"TEOW","coordinates":[-100.677,22.738]},{"unique_id":"280","name":"Narmada Valley dry deciduous forests","TYPE":"TEOW","coordinates":[78.614,25.285]},{"unique_id":"273","name":"Taiwan subtropical evergreen forests","TYPE":"TEOW","coordinates":[120.284,22.603]},{"unique_id":"276","name":"Chhota-Nagpur dry deciduous forests","TYPE":"TEOW","coordinates":[82.958,24.488]},{"unique_id":"194","name":"Southwestern Arabian foothills savanna","TYPE":"TEOW","coordinates":[40.07,21.899]},{"unique_id":"296","name":"Rann of Kutch seasonal salt marsh","TYPE":"TEOW","coordinates":[68.714,23.839]},{"unique_id":"210","name":"Chin Hills-Arakan Yoma montane forests","TYPE":"TEOW","coordinates":[94.05,23.886]},{"unique_id":"212","name":"Eastern highlands moist deciduous forests","TYPE":"TEOW","coordinates":[84.337,18.552]},{"unique_id":"263","name":"Sundarbans freshwater swamp forests","TYPE":"TEOW","coordinates":[88.21,22.136]},{"unique_id":"414","name":"Central Mexican matorral","TYPE":"TEOW","coordinates":[-99.445,20.638]},{"unique_id":"821","name":"South Saharan steppe and woodlands","TYPE":"TEOW","coordinates":[11.353,16.399]},{"unique_id":"272","name":"South Taiwan monsoon rain forests","TYPE":"TEOW","coordinates":[120.324,22.557]},{"unique_id":"195","name":"Southwestern Arabian montane woodlands","TYPE":"TEOW","coordinates":[40.07,21.899]},{"unique_id":"281","name":"Northern dry deciduous forests","TYPE":"TEOW","coordinates":[81.417,17.887]},{"unique_id":"235","name":"North Western Ghats moist deciduous forests","TYPE":"TEOW","coordinates":[73.081,18.307]},{"unique_id":"274","name":"Central Deccan Plateau dry deciduous forests","TYPE":"TEOW","coordinates":[81.201,16.155]},{"unique_id":"248","name":"Red River freshwater swamp forests","TYPE":"TEOW","coordinates":[106.613,21.028]},{"unique_id":"243","name":"Orissa semi-evergreen forests","TYPE":"TEOW","coordinates":[86.956,20.774]},{"unique_id":"220","name":"Kayah-Karen montane rain forests","TYPE":"TEOW","coordinates":[99.563,19.728]},{"unique_id":"133","name":"Sahelian Acacia savanna","TYPE":"TEOW","coordinates":[-16.512,15.998]},{"unique_id":"626","name":"Hawaii tropical high shrublands","TYPE":"TEOW","coordinates":[-156.135,20.693]},{"unique_id":"253","name":"Southern Annamites montane rain forests","TYPE":"TEOW","coordinates":[116.716,20.712]},{"unique_id":"270","name":"Hainan Island monsoon rain forests","TYPE":"TEOW","coordinates":[110.514,20.427]},{"unique_id":"240","name":"Northern Thailand-Laos moist deciduous forests","TYPE":"TEOW","coordinates":[99.117,17.98]},{"unique_id":"242","name":"Northern Vietnam lowland rain forests","TYPE":"TEOW","coordinates":[105.937,19.886]},{"unique_id":"237","name":"Northern Annamites rain forests","TYPE":"TEOW","coordinates":[103.571,18.665]},{"unique_id":"239","name":"Northern Khorat Plateau moist deciduous forests","TYPE":"TEOW","coordinates":[101.933,18.062]},{"unique_id":"1","name":"Admiralty Islands lowland rain forests","TYPE":"TEOW","coordinates":[147.593,-2.079]},{"unique_id":"150","name":"East African halophytics","TYPE":"TEOW","coordinates":[36.012,-2.122]},{"unique_id":"188","name":"Masai xeric grasslands and shrublands","TYPE":"TEOW","coordinates":[36.043,3.494]},{"unique_id":"135","name":"Somali Acacia-Commiphora bushlands and thickets","TYPE":"TEOW","coordinates":[44.217,1.268]},{"unique_id":"287","name":"Luzon tropical pine forests","TYPE":"TEOW","coordinates":[121.236,17.633]},{"unique_id":"606","name":"Central Polynesian tropical moist forests","TYPE":"TEOW","coordinates":[-169.529,16.729]},{"unique_id":"277","name":"East Deccan dry-evergreen forests","TYPE":"TEOW","coordinates":[80.232,12.787]},{"unique_id":"179","name":"Eritrean coastal desert","TYPE":"TEOW","coordinates":[42.231,13.545]},{"unique_id":"265","name":"Tonle Sap freshwater swamp forests","TYPE":"TEOW","coordinates":[103.087,13.407]},{"unique_id":"231","name":"Mindoro rain forests","TYPE":"TEOW","coordinates":[121.102,12.312]},{"unique_id":"252","name":"South Western Ghats montane rain forests","TYPE":"TEOW","coordinates":[75.418,12.711]},{"unique_id":"251","name":"South Western Ghats moist deciduous forests","TYPE":"TEOW","coordinates":[76.366,12.471]},{"unique_id":"192","name":"Socotra Island xeric shrublands","TYPE":"TEOW","coordinates":[54.22,12.641]},{"unique_id":"254","name":"Southwest Borneo freshwater swamp forests","TYPE":"TEOW","coordinates":[114.513,-3.443]},{"unique_id":"228","name":"Mentawai Islands rain forests","TYPE":"TEOW","coordinates":[99.239,-1.844]},{"unique_id":"120","name":"Zambezian Cryptosepalum dry forests","TYPE":"TEOW","coordinates":[24.229,-13.393]},{"unique_id":"105","name":"Madagascar subhumid forests","TYPE":"TEOW","coordinates":[49.17,-12.504]},{"unique_id":"130","name":"Mandara Plateau mosaic","TYPE":"TEOW","coordinates":[13.285,10.143]},{"unique_id":"285","name":"Sri Lanka dry-zone dry evergreen forests","TYPE":"TEOW","coordinates":[80.671,9.41]},{"unique_id":"132","name":"Northern Congolian forest-savanna mosaic","TYPE":"TEOW","coordinates":[13.133,8.47]},{"unique_id":"110","name":"Nigerian lowland forests","TYPE":"TEOW","coordinates":[3.694,6.532]},{"unique_id":"113","name":"Northwestern Congolian lowland forests","TYPE":"TEOW","coordinates":[18.765,3.55]},{"unique_id":"245","name":"Peninsular Malaysian montane rain forests","TYPE":"TEOW","coordinates":[101.191,5.718]},{"unique_id":"108","name":"Mount Cameroon and Bioko montane forests","TYPE":"TEOW","coordinates":[9.301,4.367]},{"unique_id":"131","name":"Northern Acacia-Commiphora bushlands and thickets","TYPE":"TEOW","coordinates":[37.317,4.038]},{"unique_id":"21","name":"Southern New Guinea freshwater swamp forests","TYPE":"TEOW","coordinates":[142.908,-8.325]},{"unique_id":"269","name":"Western Java rain forests","TYPE":"TEOW","coordinates":[110.024,-7.898]},{"unique_id":"100","name":"Granitic Seychelles forests","TYPE":"TEOW","coordinates":[53.029,-5.884]},{"unique_id":"159","name":"Angolan scarp savanna and woodlands","TYPE":"TEOW","coordinates":[13.492,-10.235]},{"unique_id":"617","name":"Society Islands tropical moist forests","TYPE":"TEOW","coordinates":[-151.022,-16.784]},{"unique_id":"163","name":"Eastern Zimbabwe montane forest-grassland mosaic","TYPE":"TEOW","coordinates":[33.914,-18.435]},{"unique_id":"619","name":"Tuamotu tropical moist forests","TYPE":"TEOW","coordinates":[-140.791,-18.331]},{"unique_id":"151","name":"Etosha Pan halophytics","TYPE":"TEOW","coordinates":[16.398,-18.471]},{"unique_id":"13","name":"New Caledonia rain forests","TYPE":"TEOW","coordinates":[163.943,-20.17]},{"unique_id":"17","name":"Queensland tropical rain forests","TYPE":"TEOW","coordinates":[149.07,-20.295]},{"unique_id":"25","name":"Trobriand Islands rain forests","TYPE":"TEOW","coordinates":[151.151,-8.568]},{"unique_id":"29","name":"Lesser Sundas deciduous forests","TYPE":"TEOW","coordinates":[116.919,-8.443]},{"unique_id":"214","name":"Eastern Java-Bali rain forests","TYPE":"TEOW","coordinates":[113.315,-8.499]},{"unique_id":"211","name":"Christmas and Cocos Islands tropical forests","TYPE":"TEOW","coordinates":[105.689,-10.486]},{"unique_id":"145","name":"Zambezian and Mopane woodlands","TYPE":"TEOW","coordinates":[33.078,-11.111]},{"unique_id":"612","name":"Marquesas tropical moist forests","TYPE":"TEOW","coordinates":[-138.672,-10.494]},{"unique_id":"255","name":"Sri Lanka lowland rain forests","TYPE":"TEOW","coordinates":[79.959,6.572]},{"unique_id":"256","name":"Sri Lanka montane rain forests","TYPE":"TEOW","coordinates":[80.698,7.59]},{"unique_id":"94","name":"Cross-Sanaga-Bioko coastal forests","TYPE":"TEOW","coordinates":[9.697,3.59]},{"unique_id":"182","name":"Hobyo grasslands and shrublands","TYPE":"TEOW","coordinates":[48.537,5.349]},{"unique_id":"93","name":"Cross-Niger transition forests","TYPE":"TEOW","coordinates":[6.717,6.308]},{"unique_id":"297","name":"Kinabalu montane alpine meadows","TYPE":"TEOW","coordinates":[116.646,6.283]},{"unique_id":"109","name":"Niger Delta swamp forests","TYPE":"TEOW","coordinates":[5.781,5.384]},{"unique_id":"111","name":"Northeastern Congolian lowland forests","TYPE":"TEOW","coordinates":[24.552,0.741]},{"unique_id":"60","name":"Central Range sub-alpine grasslands","TYPE":"TEOW","coordinates":[145.972,-6.704]},{"unique_id":"19","name":"Solomon Islands rain forests","TYPE":"TEOW","coordinates":[159.572,-8.381]},{"unique_id":"158","name":"Angolan montane forest-grassland mosaic","TYPE":"TEOW","coordinates":[15.957,-11.248]},{"unique_id":"204","name":"Borneo montane rain forests","TYPE":"TEOW","coordinates":[116.82,4.875]},{"unique_id":"50","name":"Carpentaria tropical savanna","TYPE":"TEOW","coordinates":[136.999,-15.619]},{"unique_id":"138","name":"Southern Congolian forest-savanna mosaic","TYPE":"TEOW","coordinates":[17.445,-6.175]},{"unique_id":"104","name":"Madagascar lowland forests","TYPE":"TEOW","coordinates":[49.847,-17.011]},{"unique_id":"37","name":"North Island temperate forests","TYPE":"TEOW","coordinates":[176.122,-37.602]},{"unique_id":"61","name":"South Island montane grasslands","TYPE":"TEOW","coordinates":[169.082,-43.903]},{"unique_id":"42","name":"South Island temperate forests","TYPE":"TEOW","coordinates":[169.824,-46.454]},{"unique_id":"81","name":"Tirari-Sturt stony desert","TYPE":"TEOW","coordinates":[142.157,-30.288]},{"unique_id":"89","name":"Atlantic Equatorial coastal forests","TYPE":"TEOW","coordinates":[10.67,-3.39]},{"unique_id":"170","name":"Rwenzori-Virunga montane moorlands","TYPE":"TEOW","coordinates":[29.784,-1.389]},{"unique_id":"607","name":"Cook Islands tropical moist forests","TYPE":"TEOW","coordinates":[-158.076,-20.003]},{"unique_id":"107","name":"Mascarene forests","TYPE":"TEOW","coordinates":[57.791,-20.268]},{"unique_id":"268","name":"Western Java montane rain forests","TYPE":"TEOW","coordinates":[106.745,-6.614]},{"unique_id":"52","name":"Kimberly tropical savanna","TYPE":"TEOW","coordinates":[129.745,-14.592]},{"unique_id":"45","name":"Tasmanian temperate rain forests","TYPE":"TEOW","coordinates":[146.275,-43.634]},{"unique_id":"35","name":"Fiordland temperate forests","TYPE":"TEOW","coordinates":[166.725,-45.775]},{"unique_id":"87","name":"Southern Indian Ocean Islands tundra","TYPE":"TEOW","coordinates":[50.459,-45.948]},{"unique_id":"39","name":"Rakiura Island temperate forests","TYPE":"TEOW","coordinates":[168.133,-46.961]},{"unique_id":"556","name":"Clipperton Island shrub and grasslands","TYPE":"TEOW","coordinates":[-109.225,10.287]},{"unique_id":"88","name":"Albertine Rift montane forests","TYPE":"TEOW","coordinates":[31.0,2.359]},{"unique_id":"97","name":"Eastern Congolian swamp forests","TYPE":"TEOW","coordinates":[16.213,-2.739]},{"unique_id":"27","name":"Vogelkop montane rain forests","TYPE":"TEOW","coordinates":[132.927,-3.725]},{"unique_id":"4","name":"Buru rain forests","TYPE":"TEOW","coordinates":[127.166,-3.89]},{"unique_id":"12","name":"New Britain-New Ireland montane rain forests","TYPE":"TEOW","coordinates":[152.606,-3.891]},{"unique_id":"18","name":"Seram rain forests","TYPE":"TEOW","coordinates":[130.908,-3.887]},{"unique_id":"616","name":"Samoan tropical moist forests","TYPE":"TEOW","coordinates":[-172.236,-13.738]},{"unique_id":"74","name":"Central Ranges xeric scrub","TYPE":"TEOW","coordinates":[135.022,-25.793]},{"unique_id":"155","name":"Zambezian coastal flooded savanna","TYPE":"TEOW","coordinates":[35.081,-21.049]},{"unique_id":"186","name":"Madagascar spiny thickets","TYPE":"TEOW","coordinates":[43.235,-22.207]},{"unique_id":"48","name":"Brigalow tropical savanna","TYPE":"TEOW","coordinates":[150.471,-22.222]},{"unique_id":"183","name":"Ile Europa and Bassas da India xeric scrub","TYPE":"TEOW","coordinates":[40.348,-22.365]},{"unique_id":"169","name":"Maputaland-Pondoland bushland and thickets","TYPE":"TEOW","coordinates":[31.148,-29.212]},{"unique_id":"201","name":"Southern Africa mangroves","TYPE":"TEOW","coordinates":[32.406,-28.51]},{"unique_id":"91","name":"Central Congolian lowland forests","TYPE":"TEOW","coordinates":[16.854,-2.252]},{"unique_id":"162","name":"East African montane moorlands","TYPE":"TEOW","coordinates":[34.5,1.071]},{"unique_id":"173","name":"Albany thickets","TYPE":"TEOW","coordinates":[24.389,-32.32]},{"unique_id":"175","name":"Montane fynbos and renosterveld","TYPE":"TEOW","coordinates":[19.361,-32.38]},{"unique_id":"174","name":"Lowland fynbos and renosterveld","TYPE":"TEOW","coordinates":[18.426,-32.427]},{"unique_id":"68","name":"Mount Lofty woodlands","TYPE":"TEOW","coordinates":[138.534,-34.813]},{"unique_id":"168","name":"Madagascar ericoid thickets","TYPE":"TEOW","coordinates":[46.863,-22.178]},{"unique_id":"620","name":"Tubuai tropical moist forests","TYPE":"TEOW","coordinates":[-151.343,-22.519]},{"unique_id":"157","name":"Zambezian halophytics","TYPE":"TEOW","coordinates":[33.448,-22.585]},{"unique_id":"82","name":"Western Australian Mulga shrublands","TYPE":"TEOW","coordinates":[115.328,-22.703]},{"unique_id":"161","name":"Drakensberg montane grasslands, woodlands and forests","TYPE":"TEOW","coordinates":[29.126,-22.95]},{"unique_id":"3","name":"Biak-Numfoor rain forests","TYPE":"TEOW","coordinates":[135.917,-1.197]},{"unique_id":"22","name":"Southern New Guinea lowland rain forests","TYPE":"TEOW","coordinates":[139.265,-8.027]},{"unique_id":"190","name":"Namib desert","TYPE":"TEOW","coordinates":[14.468,-23.371]},{"unique_id":"96","name":"Eastern Arc forests","TYPE":"TEOW","coordinates":[38.428,-4.603]},{"unique_id":"146","name":"Zambezian Baikiaea woodlands","TYPE":"TEOW","coordinates":[14.287,-17.083]},{"unique_id":"33","name":"Chatham Island temperate forests","TYPE":"TEOW","coordinates":[-176.199,-43.738]},{"unique_id":"56","name":"Cantebury-Otago tussock grasslands","TYPE":"TEOW","coordinates":[172.127,-43.789]},{"unique_id":"102","name":"Knysna-Amatole montane forests","TYPE":"TEOW","coordinates":[24.326,-34.1]},{"unique_id":"196","name":"Succulent Karoo","TYPE":"TEOW","coordinates":[19.882,-33.983]},{"unique_id":"64","name":"Esperance mallee","TYPE":"TEOW","coordinates":[123.634,-33.885]},{"unique_id":"46","name":"Westland temperate forests","TYPE":"TEOW","coordinates":[169.47,-43.699]},{"unique_id":"134","name":"Serengeti volcanic grasslands","TYPE":"TEOW","coordinates":[34.844,-3.515]},{"unique_id":"16","name":"Northern New Guinea montane rain forests","TYPE":"TEOW","coordinates":[136.788,-2.541]},{"unique_id":"5","name":"Central Range montane rain forests","TYPE":"TEOW","coordinates":[144.765,-6.058]},{"unique_id":"213","name":"Eastern Java-Bali montane rain forests","TYPE":"TEOW","coordinates":[111.01,-7.628]},{"unique_id":"129","name":"Kalahari Acacia-Baikiaea woodlands","TYPE":"TEOW","coordinates":[17.056,-18.079]},{"unique_id":"84","name":"Marielandia Antarctic tundra","TYPE":"TEOW","coordinates":[-64.476,-65.635]},{"unique_id":"85","name":"Maudlandia Antarctic desert","TYPE":"TEOW","coordinates":[100.75,-65.86]},{"unique_id":"7","name":"Huon Peninsula montane rain forests","TYPE":"TEOW","coordinates":[146.173,-5.785]},{"unique_id":"126","name":"Eastern Miombo woodlands","TYPE":"TEOW","coordinates":[35.7,-16.382]},{"unique_id":"121","name":"Angolan Miombo woodlands","TYPE":"TEOW","coordinates":[13.482,-12.449]},{"unique_id":"54","name":"Trans Fly savanna and grasslands","TYPE":"TEOW","coordinates":[142.276,-9.196]},{"unique_id":"123","name":"Ascension scrub and grasslands","TYPE":"TEOW","coordinates":[-14.312,-7.937]},{"unique_id":"31","name":"Sumba deciduous forests","TYPE":"TEOW","coordinates":[120.231,-10.241]},{"unique_id":"176","name":"Aldabra Island xeric scrub","TYPE":"TEOW","coordinates":[46.223,-9.367]},{"unique_id":"139","name":"Southern Miombo woodlands","TYPE":"TEOW","coordinates":[34.538,-14.946]},{"unique_id":"185","name":"Kaokoveld desert","TYPE":"TEOW","coordinates":[11.757,-17.248]},{"unique_id":"191","name":"Namibian savanna woodlands","TYPE":"TEOW","coordinates":[17.195,-26.998]},{"unique_id":"55","name":"Victoria Plains tropical savanna","TYPE":"TEOW","coordinates":[124.784,-18.935]},{"unique_id":"122","name":"Angolan Mopane woodlands","TYPE":"TEOW","coordinates":[13.215,-15.292]},{"unique_id":"171","name":"South Malawi montane forest-grassland mosaic","TYPE":"TEOW","coordinates":[35.373,-15.207]},{"unique_id":"51","name":"Einasleigh upland savanna","TYPE":"TEOW","coordinates":[143.555,-15.735]},{"unique_id":"140","name":"St. Helena scrub and woodlands","TYPE":"TEOW","coordinates":[-5.712,-15.991]},{"unique_id":"53","name":"Mitchell grass downs","TYPE":"TEOW","coordinates":[134.368,-17.667]},{"unique_id":"76","name":"Great Sandy-Tanami desert","TYPE":"TEOW","coordinates":[120.896,-23.305]},{"unique_id":"69","name":"Murray-Darling woodlands and mallee","TYPE":"TEOW","coordinates":[139.106,-33.757]},{"unique_id":"72","name":"Southwest Australia woodlands","TYPE":"TEOW","coordinates":[117.782,-34.255]},{"unique_id":"9","name":"Lord Howe Island subtropical forests","TYPE":"TEOW","coordinates":[159.045,-31.524]},{"unique_id":"44","name":"Tasmanian temperate forests","TYPE":"TEOW","coordinates":[148.064,-42.669]},{"unique_id":"137","name":"Southern Africa bushveld","TYPE":"TEOW","coordinates":[29.126,-22.95]},{"unique_id":"184","name":"Kalahari xeric savanna","TYPE":"TEOW","coordinates":[17.47,-19.431]},{"unique_id":"187","name":"Madagascar succulent woodlands","TYPE":"TEOW","coordinates":[43.278,-21.967]},{"unique_id":"160","name":"Drakensberg alti-montane grasslands and woodlands","TYPE":"TEOW","coordinates":[28.194,-29.02]},{"unique_id":"78","name":"Nullarbor Plains xeric shrublands","TYPE":"TEOW","coordinates":[133.012,-31.764]},{"unique_id":"103","name":"KwaZulu-Cape coastal forest mosaic","TYPE":"TEOW","coordinates":[30.548,-30.025]},{"unique_id":"14","name":"Norfolk Island subtropical forests","TYPE":"TEOW","coordinates":[167.959,-29.062]},{"unique_id":"611","name":"Kermadec Islands subtropical moist forests","TYPE":"TEOW","coordinates":[-177.896,-29.252]},{"unique_id":"80","name":"Simpson desert","TYPE":"TEOW","coordinates":[142.157,-30.288]},{"unique_id":"73","name":"Carnarvon xeric shrublands","TYPE":"TEOW","coordinates":[113.576,-25.623]},{"unique_id":"75","name":"Gibson desert","TYPE":"TEOW","coordinates":[128.847,-23.519]},{"unique_id":"34","name":"Eastern Australian temperate forests","TYPE":"TEOW","coordinates":[151.411,-24.004]},{"unique_id":"106","name":"Maputaland coastal forest mosaic","TYPE":"TEOW","coordinates":[33.526,-25.195]},{"unique_id":"57","name":"Eastern Australia mulga shrublands","TYPE":"TEOW","coordinates":[142.988,-31.842]},{"unique_id":"166","name":"Highveld grasslands","TYPE":"TEOW","coordinates":[28.301,-25.657]},{"unique_id":"71","name":"Southwest Australia savanna","TYPE":"TEOW","coordinates":[113.235,-26.118]},{"unique_id":"77","name":"Great Victoria desert","TYPE":"TEOW","coordinates":[133.506,-27.309]},{"unique_id":"189","name":"Nama Karoo","TYPE":"TEOW","coordinates":[24.442,-33.347]},{"unique_id":"615","name":"Rapa Nui subtropical broadleaf forests","TYPE":"TEOW","coordinates":[-109.277,-27.131]},{"unique_id":"58","name":"Southeast Australia temperate savanna","TYPE":"TEOW","coordinates":[145.743,-36.569]},{"unique_id":"63","name":"Coolgardie woodlands","TYPE":"TEOW","coordinates":[119.238,-29.62]},{"unique_id":"67","name":"Swan Coastal Plain Scrub and Woodlands","TYPE":"TEOW","coordinates":[115.634,-33.31]},{"unique_id":"65","name":"Eyre and York mallee","TYPE":"TEOW","coordinates":[136.917,-33.761]},{"unique_id":"41","name":"Southeast Australia temperate forests","TYPE":"TEOW","coordinates":[150.211,-35.709]},{"unique_id":"66","name":"Jarrah-Karri forest and shrublands","TYPE":"TEOW","coordinates":[118.175,-35.013]},{"unique_id":"38","name":"Northland temperate kauri forests","TYPE":"TEOW","coordinates":[172.144,-34.172]},{"unique_id":"70","name":"Naracoorte woodlands","TYPE":"TEOW","coordinates":[140.306,-37.687]},{"unique_id":"59","name":"Australian Alps montane grasslands","TYPE":"TEOW","coordinates":[148.043,-36.403]},{"unique_id":"149","name":"Tristan Da Cunha-Gough Islands shrub and grasslands","TYPE":"TEOW","coordinates":[-12.265,-37.153]},{"unique_id":"148","name":"Amsterdam and Saint-Paul Islands temperate grasslands","TYPE":"TEOW","coordinates":[77.508,-37.824]},{"unique_id":"36","name":"Nelson Coast temperate forests","TYPE":"TEOW","coordinates":[172.519,-40.628]},{"unique_id":"40","name":"Richmond temperate forests","TYPE":"TEOW","coordinates":[173.827,-40.756]},{"unique_id":"43","name":"Tasmanian Central Highland forests","TYPE":"TEOW","coordinates":[147.463,-42.771]},{"unique_id":"62","name":"Antipodes Subantarctic Islands tundra","TYPE":"TEOW","coordinates":[179.072,-47.713]},{"unique_id":"86","name":"Scotia Sea Islands tundra","TYPE":"TEOW","coordinates":[-35.85,-54.741]},{"unique_id":"1058","name":"Agulhas Current","TYPE":"PPOW","coordinates":[40.395,-22.249]},{"unique_id":"1059","name":"Antarctic","TYPE":"PPOW","coordinates":[166.325,-76.852]},{"unique_id":"1060","name":"Antarctic Polar Front","TYPE":"PPOW","coordinates":[158.715,-54.408]},{"unique_id":"1061","name":"Arctic","TYPE":"PPOW","coordinates":[50.323,81.361]},{"unique_id":"1062","name":"Benguela Current","TYPE":"PPOW","coordinates":[18.307,-34.459]},{"unique_id":"1063","name":"Black Sea","TYPE":"PPOW","coordinates":[32.215,44.796]},{"unique_id":"1064","name":"California Current","TYPE":"PPOW","coordinates":[-118.205,29.198]},{"unique_id":"1065","name":"Canary Current","TYPE":"PPOW","coordinates":[-23.284,15.383]},{"unique_id":"1066","name":"Eastern Tropical Pacific","TYPE":"PPOW","coordinates":[-113.732,30.202]},{"unique_id":"1067","name":"Equatorial Atlantic","TYPE":"PPOW","coordinates":[8.158,2.683]},{"unique_id":"1068","name":"Equatorial Pacific","TYPE":"PPOW","coordinates":[-160.03,-0.44]},{"unique_id":"1069","name":"Guinea Current","TYPE":"PPOW","coordinates":[5.668,3.819]},{"unique_id":"1070","name":"Gulf Stream","TYPE":"PPOW","coordinates":[-44.858,46.561]},{"unique_id":"1071","name":"Humboldt Current","TYPE":"PPOW","coordinates":[-80.663,-33.66]},{"unique_id":"1072","name":"Indian Ocean Gyre","TYPE":"PPOW","coordinates":[77.752,-39.053]},{"unique_id":"1073","name":"Indian Ocean Monsoon Gyre","TYPE":"PPOW","coordinates":[104.941,-6.085]},{"unique_id":"1074","name":"Indonesian Through-Flow","TYPE":"PPOW","coordinates":[122.549,12.851]},{"unique_id":"1075","name":"Inter American Seas","TYPE":"PPOW","coordinates":[-64.155,18.399]},{"unique_id":"1076","name":"Kuroshio","TYPE":"PPOW","coordinates":[123.13,24.528]},{"unique_id":"1077","name":"Leeuwin Current","TYPE":"PPOW","coordinates":[118.925,-17.433]},{"unique_id":"1078","name":"Malvinas Current","TYPE":"PPOW","coordinates":[-48.889,-35.919]},{"unique_id":"1079","name":"Mediterranean","TYPE":"PPOW","coordinates":[10.909,41.17]},{"unique_id":"1080","name":"Non-gyral Southwest Pacific","TYPE":"PPOW","coordinates":[171.858,-34.101]},{"unique_id":"1081","name":"North Atlantic Transitional","TYPE":"PPOW","coordinates":[5.012,58.673]},{"unique_id":"1082","name":"North Central Atlantic Gyre","TYPE":"PPOW","coordinates":[-63.323,18.608]},{"unique_id":"1083","name":"North Central Pacific Gyre","TYPE":"PPOW","coordinates":[168.114,5.534]},{"unique_id":"1084","name":"North Pacific Transitional","TYPE":"PPOW","coordinates":[-131.333,49.166]},{"unique_id":"1085","name":"Red Sea","TYPE":"PPOW","coordinates":[34.5,28.102]},{"unique_id":"1086","name":"Sea of Japan\/East Sea","TYPE":"PPOW","coordinates":[132.287,37.097]},{"unique_id":"1087","name":"Somali Current","TYPE":"PPOW","coordinates":[51.05,12.134]},{"unique_id":"1088","name":"South Central Atlantic Gyre","TYPE":"PPOW","coordinates":[-12.532,-37.393]},{"unique_id":"1089","name":"South Central Pacific Gyre","TYPE":"PPOW","coordinates":[-178.8,-31.34]},{"unique_id":"1090","name":"South China Sea","TYPE":"PPOW","coordinates":[113.229,6.284]},{"unique_id":"1091","name":"Subantarctic","TYPE":"PPOW","coordinates":[160.515,-52.344]},{"unique_id":"1092","name":"Subarctic Atlantic","TYPE":"PPOW","coordinates":[-52.415,50.644]},{"unique_id":"1093","name":"Subarctic Pacific","TYPE":"PPOW","coordinates":[147.378,45.179]},{"unique_id":"1094","name":"Subtropical Convergence","TYPE":"PPOW","coordinates":[-177.404,-43.899]},{"unique_id":"826","name":"North Greenland","TYPE":"MEOW","coordinates":[-17.658,79.98]},{"unique_id":"827","name":"North and East Iceland","TYPE":"MEOW","coordinates":[-8.911,70.925]},{"unique_id":"828","name":"East Greenland Shelf","TYPE":"MEOW","coordinates":[-33.448,67.147]},{"unique_id":"829","name":"West Greenland Shelf","TYPE":"MEOW","coordinates":[-51.886,68.636]},{"unique_id":"830","name":"Northern Grand Banks - Southern Labrador","TYPE":"MEOW","coordinates":[-58.218,56.534]},{"unique_id":"831","name":"Northern Labrador","TYPE":"MEOW","coordinates":[-62.086,65.977]},{"unique_id":"832","name":"Hudson Complex","TYPE":"MEOW","coordinates":[-74.571,64.868]},{"unique_id":"833","name":"Beaufort-Amundsen-Viscount Melville-Queen Maud","TYPE":"MEOW","coordinates":[-123.426,69.418]},{"unique_id":"834","name":"Beaufort Sea - continental coast and shelf","TYPE":"MEOW","coordinates":[-154.958,71.056]},{"unique_id":"835","name":"Chukchi Sea","TYPE":"MEOW","coordinates":[-160.131,70.321]},{"unique_id":"836","name":"East Siberian Sea","TYPE":"MEOW","coordinates":[171.096,69.03]},{"unique_id":"837","name":"Laptev Sea","TYPE":"MEOW","coordinates":[126.452,73.397]},{"unique_id":"838","name":"Kara Sea","TYPE":"MEOW","coordinates":[83.089,70.632]},{"unique_id":"839","name":"North and East Barents Sea","TYPE":"MEOW","coordinates":[53.255,72.906]},{"unique_id":"840","name":"White Sea","TYPE":"MEOW","coordinates":[40.312,64.564]},{"unique_id":"841","name":"South and West Iceland","TYPE":"MEOW","coordinates":[-18.045,65.666]},{"unique_id":"842","name":"Faroe Plateau","TYPE":"MEOW","coordinates":[-6.958,61.914]},{"unique_id":"843","name":"Southern Norway","TYPE":"MEOW","coordinates":[10.775,67.019]},{"unique_id":"844","name":"Northern Norway and Finnmark","TYPE":"MEOW","coordinates":[14.029,67.053]},{"unique_id":"845","name":"Baltic Sea","TYPE":"MEOW","coordinates":[22.364,60.239]},{"unique_id":"846","name":"North Sea","TYPE":"MEOW","coordinates":[11.674,58.099]},{"unique_id":"847","name":"Celtic Seas","TYPE":"MEOW","coordinates":[-5.687,57.529]},{"unique_id":"848","name":"South European Atlantic Shelf","TYPE":"MEOW","coordinates":[-8.714,40.669]},{"unique_id":"849","name":"Saharan Upwelling","TYPE":"MEOW","coordinates":[-15.807,23.872]},{"unique_id":"850","name":"Azores Canaries Madeira","TYPE":"MEOW","coordinates":[-31.237,39.506]},{"unique_id":"851","name":"Adriatic Sea","TYPE":"MEOW","coordinates":[15.942,43.531]},{"unique_id":"852","name":"Gulf of St. Lawrence - Eastern Scotian Shelf","TYPE":"MEOW","coordinates":[-60.816,50.197]},{"unique_id":"853","name":"Southern Grand Banks - South Newfoundland","TYPE":"MEOW","coordinates":[-58.545,47.672]},{"unique_id":"854","name":"Scotian Shelf","TYPE":"MEOW","coordinates":[-66.192,44.092]},{"unique_id":"855","name":"Virginian","TYPE":"MEOW","coordinates":[-76.477,34.692]},{"unique_id":"856","name":"Northern Gulf of Mexico","TYPE":"MEOW","coordinates":[-97.736,24.048]},{"unique_id":"857","name":"Black Sea","TYPE":"MEOW","coordinates":[27.837,42.191]},{"unique_id":"858","name":"Sea of Okhotsk","TYPE":"MEOW","coordinates":[143.227,59.386]},{"unique_id":"859","name":"Oyashio Current","TYPE":"MEOW","coordinates":[155.557,51.743]},{"unique_id":"860","name":"Northeastern Honshu","TYPE":"MEOW","coordinates":[140.675,36.596]},{"unique_id":"861","name":"Sea of Japan","TYPE":"MEOW","coordinates":[130.971,34.402]},{"unique_id":"862","name":"Yellow Sea","TYPE":"MEOW","coordinates":[123.05,39.667]},{"unique_id":"863","name":"Central Kuroshio Current","TYPE":"MEOW","coordinates":[140.839,35.739]},{"unique_id":"864","name":"East China Sea","TYPE":"MEOW","coordinates":[129.573,33.211]},{"unique_id":"865","name":"Aleutian Islands","TYPE":"MEOW","coordinates":[179.07,54.591]},{"unique_id":"866","name":"Gulf of Alaska","TYPE":"MEOW","coordinates":[-138.856,59.239]},{"unique_id":"867","name":"Cortezian","TYPE":"MEOW","coordinates":[-111.92,28.808]},{"unique_id":"868","name":"Magdalena Transition","TYPE":"MEOW","coordinates":[-113.144,26.797]},{"unique_id":"869","name":"Bermuda","TYPE":"MEOW","coordinates":[-64.655,32.357]},{"unique_id":"870","name":"Bahamian","TYPE":"MEOW","coordinates":[-77.16,26.502]},{"unique_id":"871","name":"Eastern Caribbean","TYPE":"MEOW","coordinates":[-64.932,18.334]},{"unique_id":"872","name":"Greater Antilles","TYPE":"MEOW","coordinates":[-83.157,24.336]},{"unique_id":"873","name":"Southern Caribbean","TYPE":"MEOW","coordinates":[-71.636,12.417]},{"unique_id":"874","name":"Southwestern Caribbean","TYPE":"MEOW","coordinates":[-83.115,16.933]},{"unique_id":"875","name":"Western Caribbean","TYPE":"MEOW","coordinates":[-88.12,18.781]},{"unique_id":"876","name":"Southern Gulf of Mexico","TYPE":"MEOW","coordinates":[-87.031,21.57]},{"unique_id":"877","name":"Floridian","TYPE":"MEOW","coordinates":[-80.651,28.403]},{"unique_id":"878","name":"Guianan","TYPE":"MEOW","coordinates":[-60.865,9.256]},{"unique_id":"879","name":"Amazonia","TYPE":"MEOW","coordinates":[-41.998,-2.745]},{"unique_id":"880","name":"Sao Pedro and Sao Paulo Islands","TYPE":"MEOW","coordinates":[-29.329,0.905]},{"unique_id":"881","name":"Fernando de Naronha and Atoll das Rocas","TYPE":"MEOW","coordinates":[-32.397,-3.821]},{"unique_id":"882","name":"Northeastern Brazil","TYPE":"MEOW","coordinates":[-38.674,-1.369]},{"unique_id":"883","name":"Eastern Brazil","TYPE":"MEOW","coordinates":[-39.36,-17.875]},{"unique_id":"884","name":"Trindade and Martin Vaz Islands","TYPE":"MEOW","coordinates":[-28.847,-20.478]},{"unique_id":"885","name":"St. Helena and Ascension Islands","TYPE":"MEOW","coordinates":[-14.312,-7.937]},{"unique_id":"886","name":"Cape Verde","TYPE":"MEOW","coordinates":[-24.764,16.75]},{"unique_id":"887","name":"Gulf of Guinea Upwelling","TYPE":"MEOW","coordinates":[-5.01,5.141]},{"unique_id":"888","name":"Gulf of Guinea Central","TYPE":"MEOW","coordinates":[1.919,6.297]},{"unique_id":"889","name":"Gulf of Guinea Islands","TYPE":"MEOW","coordinates":[7.396,1.559]},{"unique_id":"890","name":"Northern and Central Red Sea","TYPE":"MEOW","coordinates":[32.413,30.271]},{"unique_id":"891","name":"Southern Red Sea","TYPE":"MEOW","coordinates":[41.433,18.476]},{"unique_id":"892","name":"Gulf of Aden","TYPE":"MEOW","coordinates":[42.659,11.556]},{"unique_id":"893","name":"Arabian (Persian) Gulf","TYPE":"MEOW","coordinates":[56.393,26.222]},{"unique_id":"894","name":"Gulf of Oman","TYPE":"MEOW","coordinates":[58.912,23.322]},{"unique_id":"895","name":"Western Arabian Sea","TYPE":"MEOW","coordinates":[58.715,20.76]},{"unique_id":"896","name":"Central Somali Coast","TYPE":"MEOW","coordinates":[48.697,5.582]},{"unique_id":"897","name":"Northern Monsoon Current Coast","TYPE":"MEOW","coordinates":[42.547,-0.388]},{"unique_id":"898","name":"East African Coral Coast","TYPE":"MEOW","coordinates":[40.476,-10.507]},{"unique_id":"899","name":"Seychelles","TYPE":"MEOW","coordinates":[55.746,-4.31]},{"unique_id":"900","name":"Cargados Carajos\/Tromelin Island","TYPE":"MEOW","coordinates":[59.849,-8.783]},{"unique_id":"901","name":"Mascarene Islands","TYPE":"MEOW","coordinates":[58.716,-18.366]},{"unique_id":"902","name":"Southeast Madagascar","TYPE":"MEOW","coordinates":[47.357,-24.272]},{"unique_id":"903","name":"Western and Northern Madagascar","TYPE":"MEOW","coordinates":[43.381,-11.37]},{"unique_id":"904","name":"Bight of Sofala\/Swamp Coast","TYPE":"MEOW","coordinates":[34.735,-19.89]},{"unique_id":"905","name":"Delagoa","TYPE":"MEOW","coordinates":[32.87,-26.9]},{"unique_id":"906","name":"Western India","TYPE":"MEOW","coordinates":[69.788,21.452]},{"unique_id":"907","name":"South India and Sri Lanka","TYPE":"MEOW","coordinates":[79.633,10.344]},{"unique_id":"908","name":"Maldives","TYPE":"MEOW","coordinates":[72.259,13.665]},{"unique_id":"909","name":"Chagos","TYPE":"MEOW","coordinates":[72.182,-5.082]},{"unique_id":"910","name":"Eastern India","TYPE":"MEOW","coordinates":[82.88,17.433]},{"unique_id":"911","name":"Northern Bay of Bengal","TYPE":"MEOW","coordinates":[86.742,20.522]},{"unique_id":"912","name":"Andaman and Nicobar Islands","TYPE":"MEOW","coordinates":[93.604,14.757]},{"unique_id":"913","name":"Andaman Sea Coral Coast","TYPE":"MEOW","coordinates":[98.372,8.949]},{"unique_id":"914","name":"Western Sumatra","TYPE":"MEOW","coordinates":[95.113,6.075]},{"unique_id":"915","name":"Gulf of Tonkin","TYPE":"MEOW","coordinates":[110.382,20.818]},{"unique_id":"916","name":"Southern China","TYPE":"MEOW","coordinates":[117.351,23.929]},{"unique_id":"917","name":"South China Sea Oceanic Islands","TYPE":"MEOW","coordinates":[116.078,20.982]},{"unique_id":"918","name":"Gulf of Thailand","TYPE":"MEOW","coordinates":[99.492,11.084]},{"unique_id":"919","name":"Southern Vietnam","TYPE":"MEOW","coordinates":[105.965,9.911]},{"unique_id":"920","name":"Sunda Shelf\/Java Sea","TYPE":"MEOW","coordinates":[102.234,6.182]},{"unique_id":"921","name":"Malacca Strait","TYPE":"MEOW","coordinates":[101.89,2.422]},{"unique_id":"922","name":"Southern Java","TYPE":"MEOW","coordinates":[113.828,-8.534]},{"unique_id":"923","name":"Cocos-Keeling\/Christmas Island","TYPE":"MEOW","coordinates":[105.689,-10.486]},{"unique_id":"924","name":"South Kuroshio","TYPE":"MEOW","coordinates":[129.306,28.336]},{"unique_id":"925","name":"Ogasawara Islands","TYPE":"MEOW","coordinates":[140.097,31.427]},{"unique_id":"926","name":"Mariana Islands","TYPE":"MEOW","coordinates":[144.89,20.54]},{"unique_id":"927","name":"East Caroline Islands","TYPE":"MEOW","coordinates":[148.254,9.032]},{"unique_id":"928","name":"West Caroline Islands","TYPE":"MEOW","coordinates":[139.844,9.917]},{"unique_id":"929","name":"Palawan\/North Borneo","TYPE":"MEOW","coordinates":[121.107,12.319]},{"unique_id":"930","name":"Eastern Philippines","TYPE":"MEOW","coordinates":[122.774,10.975]},{"unique_id":"931","name":"Sulawesi Sea\/Makassar Strait","TYPE":"MEOW","coordinates":[125.485,5.511]},{"unique_id":"932","name":"Halmahera","TYPE":"MEOW","coordinates":[127.12,-0.314]},{"unique_id":"933","name":"Papua","TYPE":"MEOW","coordinates":[131.218,0.999]},{"unique_id":"934","name":"Banda Sea","TYPE":"MEOW","coordinates":[124.483,0.443]},{"unique_id":"935","name":"Lesser Sunda","TYPE":"MEOW","coordinates":[115.176,-7.381]},{"unique_id":"936","name":"Northeast Sulawesi","TYPE":"MEOW","coordinates":[122.012,-0.36]},{"unique_id":"937","name":"Bismarck Sea","TYPE":"MEOW","coordinates":[145.264,-0.75]},{"unique_id":"938","name":"Solomon Archipelago","TYPE":"MEOW","coordinates":[150.671,-1.651]},{"unique_id":"939","name":"Solomon Sea","TYPE":"MEOW","coordinates":[152.911,-4.83]},